{
  "662": {
    "id": 662,
    "url": "https://map.bemanicn.com/shop/662",
    "name": "摩根大古游戏体验中心（北京apm店）",
    "province": "北京市",
    "location": "市辖区东城区",
    "address": "王府井大街138号"
  },
  "2": {
    "id": 2,
    "url": "https://map.bemanicn.com/shop/2",
    "name": "风云再起北京西单店",
    "province": "北京市",
    "location": "市辖区西城区",
    "address": "西单堂子胡同9号新一代商城服装市场6楼"
  },
  "819": {
    "id": 819,
    "url": "https://map.bemanicn.com/shop/819",
    "name": "PLAYCE插电师",
    "province": "北京市",
    "location": "市辖区西城区",
    "address": "西单北大街131号西单大悦城8楼"
  },
  "4": {
    "id": 4,
    "url": "https://map.bemanicn.com/shop/4",
    "name": "金银岛（朝阳大悦城店）",
    "province": "北京市",
    "location": "市辖区朝阳区",
    "address": "朝阳北路101号朝阳大悦城8F"
  },
  "518": {
    "id": 518,
    "url": "https://map.bemanicn.com/shop/518",
    "name": "反斗乐园北京朝阳星际传奇店",
    "province": "北京市",
    "location": "市辖区朝阳区",
    "address": "朝阳北路龙湖长楹天街三楼星际传奇"
  },
  "1042": {
    "id": 1042,
    "url": "https://map.bemanicn.com/shop/1042",
    "name": "treasure dream北京店",
    "province": "北京市",
    "location": "市辖区朝阳区",
    "address": "建国路16号201"
  },
  "1054": {
    "id": 1054,
    "url": "https://map.bemanicn.com/shop/1054",
    "name": "盖姆龙俱乐部（毕淘买店）",
    "province": "北京市",
    "location": "市辖区朝阳区",
    "address": "酒仙桥路12号"
  },
  "572": {
    "id": 572,
    "url": "https://map.bemanicn.com/shop/572",
    "name": "量子攻略游戏体验中心(新奥购物中心店)",
    "province": "北京市",
    "location": "市辖区朝阳区",
    "address": "湖景东路9号新奥购物中心B1层H1-01"
  },
  "651": {
    "id": 651,
    "url": "https://map.bemanicn.com/shop/651",
    "name": "盖姆龙电玩俱乐部",
    "province": "北京市",
    "location": "市辖区朝阳区",
    "address": "广顺北大街33号"
  },
  "675": {
    "id": 675,
    "url": "https://map.bemanicn.com/shop/675",
    "name": "运动玩乐园（北京合生汇B3店）",
    "province": "北京市",
    "location": "市辖区朝阳区",
    "address": "西大望路22号"
  },
  "682": {
    "id": 682,
    "url": "https://map.bemanicn.com/shop/682",
    "name": "KT游艺中心(合生汇店)",
    "province": "北京市",
    "location": "市辖区朝阳区",
    "address": "广渠路九龙山地铁站合生汇B1层"
  },
  "1026": {
    "id": 1026,
    "url": "https://map.bemanicn.com/shop/1026",
    "name": "嘉贝乐（永旺梦乐城店）",
    "province": "北京市",
    "location": "市辖区丰台区",
    "address": "北京市丰台区永旺梦乐城四楼"
  },
  "839": {
    "id": 839,
    "url": "https://map.bemanicn.com/shop/839",
    "name": "莱蜜欢乐城",
    "province": "北京市",
    "location": "市辖区丰台区",
    "address": "丽泽桥丰北路18号金唐购物中心三层"
  },
  "994": {
    "id": 994,
    "url": "https://map.bemanicn.com/shop/994",
    "name": "星际传奇北京丰台丽泽天街店（临时停业中）",
    "province": "北京市",
    "location": "市辖区丰台区",
    "address": "丽泽路300号丽泽天街三楼"
  },
  "627": {
    "id": 627,
    "url": "https://map.bemanicn.com/shop/627",
    "name": "Play1家庭娱乐中心（北京石景山万达店）",
    "province": "北京市",
    "location": "市辖区石景山区",
    "address": "石景山路18号万达广场苏宁易购广场1层"
  },
  "3": {
    "id": 3,
    "url": "https://map.bemanicn.com/shop/3",
    "name": "乐酷电玩俱乐部(金源燕莎店)",
    "province": "北京市",
    "location": "市辖区海淀区",
    "address": "远大路1号金源新燕莎MALL东区5层"
  },
  "890": {
    "id": 890,
    "url": "https://map.bemanicn.com/shop/890",
    "name": "莱利嘉年华",
    "province": "北京市",
    "location": "市辖区海淀区",
    "address": "远大路金源购物中心-1层B12"
  },
  "443": {
    "id": 443,
    "url": "https://map.bemanicn.com/shop/443",
    "name": "Hi-Fun嗨翻竞技体育乐园",
    "province": "北京市",
    "location": "市辖区海淀区",
    "address": "五棵松复兴路69号五棵松华熙LIVE"
  },
  "449": {
    "id": 449,
    "url": "https://map.bemanicn.com/shop/449",
    "name": "land mark",
    "province": "北京市",
    "location": "市辖区海淀区",
    "address": "海淀区华联3F东侧"
  },
  "743": {
    "id": 743,
    "url": "https://map.bemanicn.com/shop/743",
    "name": "嘉贝乐电玩城(上地华联店)",
    "province": "北京市",
    "location": "市辖区海淀区",
    "address": "农大南路一号院1号楼华联商厦上地店"
  },
  "646": {
    "id": 646,
    "url": "https://map.bemanicn.com/shop/646",
    "name": "大玩家超乐场（北京通州万达店）",
    "province": "北京市",
    "location": "市辖区通州区",
    "address": "新华西街58号万达广场(通州店)3F层"
  },
  "777": {
    "id": 777,
    "url": "https://map.bemanicn.com/shop/777",
    "name": "大玩家超乐场（北京昌平乐多港万达店）",
    "province": "北京市",
    "location": "市辖区昌平区",
    "address": "城南街道南口路29号"
  },
  "660": {
    "id": 660,
    "url": "https://map.bemanicn.com/shop/660",
    "name": "莫莉幻想",
    "province": "北京市",
    "location": "市辖区昌平区",
    "address": "北清路1号永旺国际商城店2层"
  },
  "678": {
    "id": 678,
    "url": "https://map.bemanicn.com/shop/678",
    "name": "玩家会",
    "province": "北京市",
    "location": "市辖区昌平区",
    "address": "南环路10号院1号楼"
  },
  "560": {
    "id": 560,
    "url": "https://map.bemanicn.com/shop/560",
    "name": "达人联盟",
    "province": "北京市",
    "location": "市辖区大兴区",
    "address": "久敬庄路与德贤路交叉口世界之花假日广场3层M区"
  },
  "270": {
    "id": 270,
    "url": "https://map.bemanicn.com/shop/270",
    "name": "汤姆熊天津恒隆广场店",
    "province": "天津市",
    "location": "市辖区和平区",
    "address": "兴安路166号恒隆广场3层3030室"
  },
  "54": {
    "id": 54,
    "url": "https://map.bemanicn.com/shop/54",
    "name": "缤纷乐园(原友谊新天地电玩广场)",
    "province": "天津市",
    "location": "市辖区和平区",
    "address": "天津市和平区滨江道山东路与长春道交叉口友谊新天地大厦B座1F"
  },
  "55": {
    "id": 55,
    "url": "https://map.bemanicn.com/shop/55",
    "name": "风云再起和平路店",
    "province": "天津市",
    "location": "市辖区和平区",
    "address": "和平路万达沃尔玛一层"
  },
  "56": {
    "id": 56,
    "url": "https://map.bemanicn.com/shop/56",
    "name": "风云再起南京路店",
    "province": "天津市",
    "location": "市辖区和平区",
    "address": "天津市和平区南京路209号米莱欧百货4层"
  },
  "739": {
    "id": 739,
    "url": "https://map.bemanicn.com/shop/739",
    "name": "汤姆熊天津天河城店",
    "province": "天津市",
    "location": "市辖区和平区",
    "address": "赤峰道与和平路交叉口天河城购物中心5楼502-506"
  },
  "57": {
    "id": 57,
    "url": "https://map.bemanicn.com/shop/57",
    "name": "大玩家超乐场",
    "province": "天津市",
    "location": "市辖区河东区",
    "address": "天津市河东区津滨大道53号万达广场河东店"
  },
  "323": {
    "id": 323,
    "url": "https://map.bemanicn.com/shop/323",
    "name": "风云再起爱琴海店",
    "province": "天津市",
    "location": "市辖区河东区",
    "address": "津滨大道160号天津爱琴海购物公园4F层4F-446"
  },
  "838": {
    "id": 838,
    "url": "https://map.bemanicn.com/shop/838",
    "name": "利奥梦幻乐园",
    "province": "天津市",
    "location": "市辖区河东区",
    "address": "津滨大道160号爱琴海购物公园三楼"
  },
  "736": {
    "id": 736,
    "url": "https://map.bemanicn.com/shop/736",
    "name": "麦趣熊泉汇店",
    "province": "天津市",
    "location": "市辖区河西区",
    "address": "大沽南路1118号(珠江道口)泉汇购物中心一楼"
  },
  "876": {
    "id": 876,
    "url": "https://map.bemanicn.com/shop/876",
    "name": "PPG皮派阁潮玩汇",
    "province": "天津市",
    "location": "市辖区南开区",
    "address": "南门外大街大悦城南区四楼"
  },
  "480": {
    "id": 480,
    "url": "https://map.bemanicn.com/shop/480",
    "name": "重振旗鼓电玩俱乐部天津鲁能城店",
    "province": "天津市",
    "location": "市辖区南开区",
    "address": "水上公园北道鲁能城购物中心B1层"
  },
  "760": {
    "id": 760,
    "url": "https://map.bemanicn.com/shop/760",
    "name": "可可猩球南开大悦城",
    "province": "天津市",
    "location": "市辖区南开区",
    "address": "南门外大街2-6号南开大悦城北区2楼1号"
  },
  "1024": {
    "id": 1024,
    "url": "https://map.bemanicn.com/shop/1024",
    "name": "汤姆熊天津印象城店",
    "province": "天津市",
    "location": "市辖区西青区",
    "address": "开发区友谊南路111号印象城购物中心2层"
  },
  "1029": {
    "id": 1029,
    "url": "https://map.bemanicn.com/shop/1029",
    "name": "51区超级乐园梅江店",
    "province": "天津市",
    "location": "市辖区西青区",
    "address": "友谊南路111号 2楼226号"
  },
  "267": {
    "id": 267,
    "url": "https://map.bemanicn.com/shop/267",
    "name": "51区超级乐园天津西青曹庄店",
    "province": "天津市",
    "location": "市辖区西青区",
    "address": "阜盛道1号永旺梦乐城2楼51区动漫游乐场"
  },
  "781": {
    "id": 781,
    "url": "https://map.bemanicn.com/shop/781",
    "name": "51区超级乐园天津津南店",
    "province": "天津市",
    "location": "市辖区津南区",
    "address": "辛庄镇深特广场1号楼永旺梦乐城3层"
  },
  "287": {
    "id": 287,
    "url": "https://map.bemanicn.com/shop/287",
    "name": "城市英雄天津津南吾悦广场店",
    "province": "天津市",
    "location": "市辖区津南区",
    "address": "咸水沽二八线吾悦广场三楼Z11"
  },
  "787": {
    "id": 787,
    "url": "https://map.bemanicn.com/shop/787",
    "name": "金满家儿童乐园",
    "province": "天津市",
    "location": "市辖区宝坻区",
    "address": "宝平街道天赋源商业广场a座"
  },
  "1050": {
    "id": 1050,
    "url": "https://map.bemanicn.com/shop/1050",
    "name": "11Lab",
    "province": "天津市",
    "location": "市辖区滨海新区",
    "address": "天津市滨海新区第一大街与新城西路交汇处 k11 Selected购物艺术中心 二层"
  },
  "979": {
    "id": 979,
    "url": "https://map.bemanicn.com/shop/979",
    "name": "play1家庭娱乐中心（大玩家超乐场滨海万达店）",
    "province": "天津市",
    "location": "市辖区滨海新区",
    "address": "洞庭路万达广场2F-A号"
  },
  "1015": {
    "id": 1015,
    "url": "https://map.bemanicn.com/shop/1015",
    "name": "王者之风游乐体验中心",
    "province": "天津市",
    "location": "市辖区滨海新区",
    "address": "解放路777号银泰文化艺术中心B1层"
  },
  "192": {
    "id": 192,
    "url": "https://map.bemanicn.com/shop/192",
    "name": "汤姆熊欢乐世界乐汇城店",
    "province": "河北省",
    "location": "石家庄市长安区",
    "address": "中山东路11号乐汇城5楼"
  },
  "195": {
    "id": 195,
    "url": "https://map.bemanicn.com/shop/195",
    "name": "石家庄星际传奇",
    "province": "河北省",
    "location": "石家庄市桥西区",
    "address": "中华南大街与同庆街交叉口东150米万象城3F-4F"
  },
  "194": {
    "id": 194,
    "url": "https://map.bemanicn.com/shop/194",
    "name": "风云再起石家庄华强广场店",
    "province": "河北省",
    "location": "石家庄市新华区",
    "address": "民族路商业街西段北侧(颐高数码城西侧)华强广场5F"
  },
  "193": {
    "id": 193,
    "url": "https://map.bemanicn.com/shop/193",
    "name": "Play1家庭娱乐中心（裕华万达店）",
    "province": "河北省",
    "location": "石家庄市裕华区",
    "address": "建华南大街136号万达广场L3层"
  },
  "822": {
    "id": 822,
    "url": "https://map.bemanicn.com/shop/822",
    "name": "大玩家超乐场（唐山路南万达店）",
    "province": "河北省",
    "location": "唐山市路南区",
    "address": "新华东道万达广场二层play1家庭娱乐中心"
  },
  "202": {
    "id": 202,
    "url": "https://map.bemanicn.com/shop/202",
    "name": "乐动工场（唐山）",
    "province": "河北省",
    "location": "唐山市路南区",
    "address": "新华西道2-4号银泰城B馆F1楼"
  },
  "467": {
    "id": 467,
    "url": "https://map.bemanicn.com/shop/467",
    "name": "风云再起秦皇岛店",
    "province": "河北省",
    "location": "秦皇岛市海港区",
    "address": "河北大街西段368号茂业天地4楼"
  },
  "468": {
    "id": 468,
    "url": "https://map.bemanicn.com/shop/468",
    "name": "大玩家超乐场（秦皇岛万达店）",
    "province": "河北省",
    "location": "秦皇岛市海港区",
    "address": "万达广场2楼"
  },
  "470": {
    "id": 470,
    "url": "https://map.bemanicn.com/shop/470",
    "name": "汇海电玩",
    "province": "河北省",
    "location": "秦皇岛市海港区",
    "address": "民族南路93号(广缘超市对面)"
  },
  "471": {
    "id": 471,
    "url": "https://map.bemanicn.com/shop/471",
    "name": "起创电玩",
    "province": "河北省",
    "location": "秦皇岛市山海关区",
    "address": "老龙头路与顺达街交叉口东100米"
  },
  "1055": {
    "id": 1055,
    "url": "https://map.bemanicn.com/shop/1055",
    "name": "七亿光年游戏厅",
    "province": "河北省",
    "location": "秦皇岛市昌黎县",
    "address": "民生路兴龙广缘超市四层"
  },
  "715": {
    "id": 715,
    "url": "https://map.bemanicn.com/shop/715",
    "name": "大玩家超乐场（邯郸万达店）",
    "province": "河北省",
    "location": "邯郸市邯山区",
    "address": "滏河南大街与陵园路交叉口西南万达广场三楼大玩家"
  },
  "1053": {
    "id": 1053,
    "url": "https://map.bemanicn.com/shop/1053",
    "name": "热带雨林主题乐园",
    "province": "河北省",
    "location": "邯郸市丛台区",
    "address": "人民路456号美乐城五楼"
  },
  "199": {
    "id": 199,
    "url": "https://map.bemanicn.com/shop/199",
    "name": "金棕榈电玩城",
    "province": "河北省",
    "location": "邢台市桥西区",
    "address": "中兴西大街188号北国商城7F"
  },
  "738": {
    "id": 738,
    "url": "https://map.bemanicn.com/shop/738",
    "name": "新星际动漫游戏体验中心",
    "province": "河北省",
    "location": "保定市莲池区",
    "address": "裕华西路555号华创国际广场3层"
  },
  "263": {
    "id": 263,
    "url": "https://map.bemanicn.com/shop/263",
    "name": "GOOGOOISLAND咕咕岛",
    "province": "河北省",
    "location": "保定市涿州市",
    "address": "范阳中路590号3楼GOOGOOISLAND"
  },
  "1057": {
    "id": 1057,
    "url": "https://map.bemanicn.com/shop/1057",
    "name": "超级大玩家电玩城",
    "province": "河北省",
    "location": "张家口市桥东区",
    "address": "老火车步行街东区88铺"
  },
  "550": {
    "id": 550,
    "url": "https://map.bemanicn.com/shop/550",
    "name": "酷乐游动漫城",
    "province": "河北省",
    "location": "张家口市桥西区",
    "address": "至善街尚峰广场5楼(长青路)"
  },
  "204": {
    "id": 204,
    "url": "https://map.bemanicn.com/shop/204",
    "name": "游久电玩城（张家口）",
    "province": "河北省",
    "location": "张家口市桥西区",
    "address": "清水河中路33号旁"
  },
  "205": {
    "id": 205,
    "url": "https://map.bemanicn.com/shop/205",
    "name": "侏罗纪动漫城",
    "province": "河北省",
    "location": "张家口市张家口市高新技术产业开发区",
    "address": "胜利中路西150米时代金茂4楼"
  },
  "206": {
    "id": 206,
    "url": "https://map.bemanicn.com/shop/206",
    "name": "悦淘乐园/悦畅电玩",
    "province": "河北省",
    "location": "沧州市任丘市",
    "address": "会战道悦都汇悦淘乐园（三楼与五楼）"
  },
  "617": {
    "id": 617,
    "url": "https://map.bemanicn.com/shop/617",
    "name": "大玩家超乐场（廊坊万达店）",
    "province": "河北省",
    "location": "廊坊市广阳区",
    "address": "新华路50号3楼"
  },
  "1040": {
    "id": 1040,
    "url": "https://map.bemanicn.com/shop/1040",
    "name": "炫酷达人电玩城（新世界百货店）",
    "province": "河北省",
    "location": "廊坊市三河市",
    "address": "燕郊新世界百货"
  },
  "972": {
    "id": 972,
    "url": "https://map.bemanicn.com/shop/972",
    "name": "酷客领域游戏体验中心",
    "province": "河北省",
    "location": "衡水市桃城区",
    "address": "红旗大街人民路交叉口 汇中广场 C-F3-01号"
  },
  "622": {
    "id": 622,
    "url": "https://map.bemanicn.com/shop/622",
    "name": "风云再起太原茂业店",
    "province": "山西省",
    "location": "太原市小店区",
    "address": "亲贤北街茂业天地二期四楼风云再起"
  },
  "463": {
    "id": 463,
    "url": "https://map.bemanicn.com/shop/463",
    "name": "城市英雄(茂业天地店)",
    "province": "山西省",
    "location": "太原市小店区",
    "address": "亲贤北街79号茂业天地1期L6层"
  },
  "312": {
    "id": 312,
    "url": "https://map.bemanicn.com/shop/312",
    "name": "风云再起太原老鼠街店",
    "province": "山西省",
    "location": "太原市迎泽区",
    "address": "铜锣湾小区4栋老鼠街3层"
  },
  "120": {
    "id": 120,
    "url": "https://map.bemanicn.com/shop/120",
    "name": "阿凡达电玩城",
    "province": "山西省",
    "location": "太原市迎泽区",
    "address": "太原市迎泽区柳巷南路长风剧场对面流行前线4楼（工贸大厦4楼）"
  },
  "903": {
    "id": 903,
    "url": "https://map.bemanicn.com/shop/903",
    "name": "play1家庭娱乐中心（太原万达店）",
    "province": "山西省",
    "location": "太原市杏花岭区",
    "address": "解放路175号"
  },
  "786": {
    "id": 786,
    "url": "https://map.bemanicn.com/shop/786",
    "name": "奥飞欢乐世界太原来福店",
    "province": "山西省",
    "location": "太原市万柏林区",
    "address": "南内环西街59号附近世纪联华来福购物中心"
  },
  "799": {
    "id": 799,
    "url": "https://map.bemanicn.com/shop/799",
    "name": "星际传奇太原万象城店",
    "province": "山西省",
    "location": "太原市万柏林区",
    "address": "长兴路5号"
  },
  "123": {
    "id": 123,
    "url": "https://map.bemanicn.com/shop/123",
    "name": "华林新天地",
    "province": "山西省",
    "location": "大同市市辖区",
    "address": "大同市魏都大道清远街口（华林新天地4楼）"
  },
  "1035": {
    "id": 1035,
    "url": "https://map.bemanicn.com/shop/1035",
    "name": "奇梦星球电玩Mall",
    "province": "山西省",
    "location": "大同市平城区",
    "address": "武定北路爱琴海购物公园6F"
  },
  "570": {
    "id": 570,
    "url": "https://map.bemanicn.com/shop/570",
    "name": "梦幻乐园",
    "province": "山西省",
    "location": "阳泉市城区",
    "address": "桃北东路4号"
  },
  "121": {
    "id": 121,
    "url": "https://map.bemanicn.com/shop/121",
    "name": "灵漫家庭娱乐广场",
    "province": "山西省",
    "location": "晋中市市辖区",
    "address": "晋中市龙湖大街天美杉杉奥特莱斯二楼"
  },
  "122": {
    "id": 122,
    "url": "https://map.bemanicn.com/shop/122",
    "name": "开来淘气堡",
    "province": "山西省",
    "location": "忻州市忻府区",
    "address": "和平街七一路口开来欣悦商务中心8F"
  },
  "957": {
    "id": 957,
    "url": "https://map.bemanicn.com/shop/957",
    "name": "时代大玩家",
    "province": "山西省",
    "location": "忻州市原平市",
    "address": "体育北路与前进西街交叉口中央时代广场4F"
  },
  "326": {
    "id": 326,
    "url": "https://map.bemanicn.com/shop/326",
    "name": "CLUBPLAY",
    "province": "内蒙古自治区",
    "location": "呼和浩特市回民区",
    "address": "锡林郭勒北路29号振华广场7楼"
  },
  "329": {
    "id": 329,
    "url": "https://map.bemanicn.com/shop/329",
    "name": "热带雨林动漫城",
    "province": "内蒙古自治区",
    "location": "呼和浩特市回民区",
    "address": "海亮广场D座6楼"
  },
  "327": {
    "id": 327,
    "url": "https://map.bemanicn.com/shop/327",
    "name": "城市英雄（摩尔城店）",
    "province": "内蒙古自治区",
    "location": "呼和浩特市赛罕区",
    "address": "新华东街62号维多利摩尔城A座L11层（新华东街与东影南路交汇处长乐宫东）"
  },
  "945": {
    "id": 945,
    "url": "https://map.bemanicn.com/shop/945",
    "name": "大玩家超乐场（呼和浩特赛罕万达店）",
    "province": "内蒙古自治区",
    "location": "呼和浩特市赛罕区",
    "address": "新华东街26号万达广场2层"
  },
  "962": {
    "id": 962,
    "url": "https://map.bemanicn.com/shop/962",
    "name": "桌一聚桌游剧本工作室",
    "province": "内蒙古自治区",
    "location": "包头市昆都仑区",
    "address": "少先路20号街坊11栋2单元1楼中户"
  },
  "1002": {
    "id": 1002,
    "url": "https://map.bemanicn.com/shop/1002",
    "name": "Fefesheep菲菲羊游乐（包头吾悦广场店）",
    "province": "内蒙古自治区",
    "location": "包头市昆都仑区",
    "address": "昆区稀土大街吾悦广场2层"
  },
  "332": {
    "id": 332,
    "url": "https://map.bemanicn.com/shop/332",
    "name": "大玩家超乐场（包头青山万达广场店）",
    "province": "内蒙古自治区",
    "location": "包头市青山区",
    "address": "青年路26号万达广场包头店2层"
  },
  "333": {
    "id": 333,
    "url": "https://map.bemanicn.com/shop/333",
    "name": "童逸动漫城",
    "province": "内蒙古自治区",
    "location": "包头市青山区",
    "address": "钢铁大街与富强路东北角BHG Mall北京华联包头购物中心4层北"
  },
  "995": {
    "id": 995,
    "url": "https://map.bemanicn.com/shop/995",
    "name": "大玩家超乐场（包头九原万达广场店）",
    "province": "内蒙古自治区",
    "location": "包头市九原区",
    "address": "沙河街九原万达广场3层"
  },
  "932": {
    "id": 932,
    "url": "https://map.bemanicn.com/shop/932",
    "name": "大玩家超乐场（乌海万达广场店）",
    "province": "内蒙古自治区",
    "location": "乌海市海勃湾区",
    "address": "人民南路40号乌海万达广场3层"
  },
  "472": {
    "id": 472,
    "url": "https://map.bemanicn.com/shop/472",
    "name": "大玩家超乐场（赤峰万达广场店）",
    "province": "内蒙古自治区",
    "location": "赤峰市红山区",
    "address": "西拉沐沦大街8号"
  },
  "331": {
    "id": 331,
    "url": "https://map.bemanicn.com/shop/331",
    "name": "太平洋电玩城",
    "province": "内蒙古自治区",
    "location": "通辽市科尔沁区",
    "address": "科尔沁大街太平洋商场1层东门"
  },
  "997": {
    "id": 997,
    "url": "https://map.bemanicn.com/shop/997",
    "name": "白马王国主题公园（通辽店）",
    "province": "内蒙古自治区",
    "location": "通辽市科尔沁区",
    "address": "和平路与新兴大街交汇处维多利广场3层"
  },
  "996": {
    "id": 996,
    "url": "https://map.bemanicn.com/shop/996",
    "name": "酷乐大玩家（鄂尔多斯店）",
    "province": "内蒙古自治区",
    "location": "鄂尔多斯市东胜区",
    "address": "准格尔路鄂尔多斯市购物中心星河COCO City"
  },
  "334": {
    "id": 334,
    "url": "https://map.bemanicn.com/shop/334",
    "name": "大玩家超乐场（满洲里万达店）",
    "province": "内蒙古自治区",
    "location": "呼伦贝尔市满洲里市",
    "address": "华埠大街6号万达广场"
  },
  "568": {
    "id": 568,
    "url": "https://map.bemanicn.com/shop/568",
    "name": "欢乐谷动漫城",
    "province": "内蒙古自治区",
    "location": "呼伦贝尔市扎兰屯市",
    "address": "中央北路与立新街交汇处东100米"
  },
  "963": {
    "id": 963,
    "url": "https://map.bemanicn.com/shop/963",
    "name": "白马王国主题公园（维多利店）",
    "province": "内蒙古自治区",
    "location": "巴彦淖尔市临河区",
    "address": "维多利广场一期三楼"
  },
  "964": {
    "id": 964,
    "url": "https://map.bemanicn.com/shop/964",
    "name": "福乐熊儿童主题乐园（维多利店）",
    "province": "内蒙古自治区",
    "location": "巴彦淖尔市临河区",
    "address": "维多利广场二期三楼"
  },
  "977": {
    "id": 977,
    "url": "https://map.bemanicn.com/shop/977",
    "name": "娱乐城（维多利店）",
    "province": "内蒙古自治区",
    "location": "巴彦淖尔市临河区",
    "address": "维多利一期地下超市"
  },
  "922": {
    "id": 922,
    "url": "https://map.bemanicn.com/shop/922",
    "name": "万众国际影城",
    "province": "内蒙古自治区",
    "location": "乌兰察布市集宁区",
    "address": "国际皮草城西南万众娱乐广场1号楼"
  },
  "924": {
    "id": 924,
    "url": "https://map.bemanicn.com/shop/924",
    "name": "大玩家超乐场（乌兰察布万达广场店）",
    "province": "内蒙古自治区",
    "location": "乌兰察布市集宁区",
    "address": "察哈尔东街乌兰察布万达广场2层02号商铺"
  },
  "820": {
    "id": 820,
    "url": "https://map.bemanicn.com/shop/820",
    "name": "乐贪玩（沈阳和平印象城店）",
    "province": "辽宁省",
    "location": "沈阳市和平区",
    "address": "中华路15号太原街印象城三楼乐贪玩"
  },
  "673": {
    "id": 673,
    "url": "https://map.bemanicn.com/shop/673",
    "name": "大玩家超乐场（太原街万达店）",
    "province": "辽宁省",
    "location": "沈阳市和平区",
    "address": "太原南街2号太原街万达广场3F"
  },
  "85": {
    "id": 85,
    "url": "https://map.bemanicn.com/shop/85",
    "name": "风云再起游乐汇（皇城恒隆广场店）",
    "province": "辽宁省",
    "location": "沈阳市沈河区",
    "address": "中街路128号皇城恒隆广场2F211"
  },
  "88": {
    "id": 88,
    "url": "https://map.bemanicn.com/shop/88",
    "name": "汤姆熊欢乐世界（皇城恒隆广场店）",
    "province": "辽宁省",
    "location": "沈阳市沈河区",
    "address": "中街路128号皇城恒隆广场4F"
  },
  "604": {
    "id": 604,
    "url": "https://map.bemanicn.com/shop/604",
    "name": "风云再起游乐汇（沈阳佳兆业广场店）",
    "province": "辽宁省",
    "location": "沈阳市沈河区",
    "address": "青年大街173号佳兆业广场3F"
  },
  "606": {
    "id": 606,
    "url": "https://map.bemanicn.com/shop/606",
    "name": "欢乐城市电玩公园",
    "province": "辽宁省",
    "location": "沈阳市沈河区",
    "address": "中街路268号益田假日世界1F"
  },
  "974": {
    "id": 974,
    "url": "https://map.bemanicn.com/shop/974",
    "name": "蓝之星街机",
    "province": "辽宁省",
    "location": "沈阳市沈河区",
    "address": "朱剪炉街道清真路95号"
  },
  "87": {
    "id": 87,
    "url": "https://map.bemanicn.com/shop/87",
    "name": "嘉斯猫电玩城",
    "province": "辽宁省",
    "location": "沈阳市大东区",
    "address": "大悦城D馆 B1楼 汉巴味德对面"
  },
  "602": {
    "id": 602,
    "url": "https://map.bemanicn.com/shop/602",
    "name": "风云再起游乐汇（中街大悦城店）",
    "province": "辽宁省",
    "location": "沈阳市大东区",
    "address": "小东路5号中街大悦城B馆4F"
  },
  "626": {
    "id": 626,
    "url": "https://map.bemanicn.com/shop/626",
    "name": "金色年华电玩沙龙（中街新玛特店）",
    "province": "辽宁省",
    "location": "沈阳市大东区",
    "address": "小东路1号中街新玛特7F"
  },
  "706": {
    "id": 706,
    "url": "https://map.bemanicn.com/shop/706",
    "name": "莱利动漫电玩城",
    "province": "辽宁省",
    "location": "沈阳市皇姑区",
    "address": "塔湾街11号(塔湾街与昆山西路交汇处)"
  },
  "89": {
    "id": 89,
    "url": "https://map.bemanicn.com/shop/89",
    "name": "星际传奇（铁西万象汇店）",
    "province": "辽宁省",
    "location": "沈阳市铁西区",
    "address": "建设东路158号铁西万象汇3F"
  },
  "90": {
    "id": 90,
    "url": "https://map.bemanicn.com/shop/90",
    "name": "V动地带电玩城（沈辽西路店）",
    "province": "辽宁省",
    "location": "沈阳市铁西区",
    "address": "兴隆大天地地下1层"
  },
  "608": {
    "id": 608,
    "url": "https://map.bemanicn.com/shop/608",
    "name": "风云再起游乐汇（沈北华强广场店）",
    "province": "辽宁省",
    "location": "沈阳市沈北新区",
    "address": "道义南大街8号沈北华强广场3F314"
  },
  "998": {
    "id": 998,
    "url": "https://map.bemanicn.com/shop/998",
    "name": "金色年华电玩沙龙（于洪新玛特店）",
    "province": "辽宁省",
    "location": "沈阳市于洪区",
    "address": "黄海路45号于洪新玛特7F"
  },
  "95": {
    "id": 95,
    "url": "https://map.bemanicn.com/shop/95",
    "name": "汤姆熊欢乐世界（站前新玛特店）",
    "province": "辽宁省",
    "location": "大连市中山区",
    "address": "友好街40号"
  },
  "756": {
    "id": 756,
    "url": "https://map.bemanicn.com/shop/756",
    "name": "风云再起大连胜利广场店",
    "province": "辽宁省",
    "location": "大连市中山区",
    "address": "中山路28号胜利广场地下1层"
  },
  "92": {
    "id": 92,
    "url": "https://map.bemanicn.com/shop/92",
    "name": "银河系（恒隆广场店）",
    "province": "辽宁省",
    "location": "大连市西岗区",
    "address": "恒隆广场4楼413a"
  },
  "91": {
    "id": 91,
    "url": "https://map.bemanicn.com/shop/91",
    "name": "东方英雄哈尼鹿梦幻王国（中央大道店）",
    "province": "辽宁省",
    "location": "大连市沙河口区",
    "address": "西安路103-9号中央大道旅游文化购物中心"
  },
  "96": {
    "id": 96,
    "url": "https://map.bemanicn.com/shop/96",
    "name": "汤姆熊欢乐世界（罗斯福店）",
    "province": "辽宁省",
    "location": "大连市沙河口区",
    "address": "西安路139号罗斯福广场4F"
  },
  "94": {
    "id": 94,
    "url": "https://map.bemanicn.com/shop/94",
    "name": "汤姆熊欢乐世界JOYLAND（华南亿合城店）",
    "province": "辽宁省",
    "location": "大连市甘井子区",
    "address": "山东路235号华南广场亿合城F4"
  },
  "99": {
    "id": 99,
    "url": "https://map.bemanicn.com/shop/99",
    "name": "大玩家超乐场(高新万达店)",
    "province": "辽宁省",
    "location": "大连市甘井子区",
    "address": "黄浦路500号"
  },
  "101": {
    "id": 101,
    "url": "https://map.bemanicn.com/shop/101",
    "name": "大玩家超乐场(甘井子万达店)",
    "province": "辽宁省",
    "location": "大连市甘井子区",
    "address": "虹韵路6号"
  },
  "98": {
    "id": 98,
    "url": "https://map.bemanicn.com/shop/98",
    "name": "大商新玛特购物广场电玩城（旅顺世达店）",
    "province": "辽宁省",
    "location": "大连市旅顺口区",
    "address": "大商新玛特购物广场电玩城（旅顺世达店）"
  },
  "100": {
    "id": 100,
    "url": "https://map.bemanicn.com/shop/100",
    "name": "大玩家超乐场(开发区万达店)",
    "province": "辽宁省",
    "location": "大连市金州区",
    "address": "辽河西路117号"
  },
  "103": {
    "id": 103,
    "url": "https://map.bemanicn.com/shop/103",
    "name": "汤姆熊欢乐世界（开发区安盛店）",
    "province": "辽宁省",
    "location": "大连市金州区",
    "address": "金马路189号"
  },
  "755": {
    "id": 755,
    "url": "https://map.bemanicn.com/shop/755",
    "name": "东方英雄（万成广场店）",
    "province": "辽宁省",
    "location": "大连市瓦房店市",
    "address": "旺角区万成广场三楼"
  },
  "1051": {
    "id": 1051,
    "url": "https://map.bemanicn.com/shop/1051",
    "name": "东方英雄（万熹城市公园店）",
    "province": "辽宁省",
    "location": "鞍山市铁东区",
    "address": "站前街与铁东二道街交叉口东南"
  },
  "110": {
    "id": 110,
    "url": "https://map.bemanicn.com/shop/110",
    "name": "东方英雄(新玛特店)",
    "province": "辽宁省",
    "location": "鞍山市铁东区",
    "address": "大商新玛特六层"
  },
  "707": {
    "id": 707,
    "url": "https://map.bemanicn.com/shop/707",
    "name": "四隆主题公园",
    "province": "辽宁省",
    "location": "鞍山市铁东区",
    "address": "东山街33号甲四隆广场4楼"
  },
  "109": {
    "id": 109,
    "url": "https://map.bemanicn.com/shop/109",
    "name": "东方英雄(苏宁广场店)",
    "province": "辽宁省",
    "location": "鞍山市铁西区",
    "address": "人民路81号苏宁生活广场6楼"
  },
  "742": {
    "id": 742,
    "url": "https://map.bemanicn.com/shop/742",
    "name": "东方英雄（大悦城店）",
    "province": "辽宁省",
    "location": "鞍山市立山区",
    "address": "胜利北路320号（大悦城）7楼"
  },
  "105": {
    "id": 105,
    "url": "https://map.bemanicn.com/shop/105",
    "name": "大玩家超乐场（抚顺万达店）",
    "province": "辽宁省",
    "location": "抚顺市新抚区",
    "address": "浑河南路中段56号抚顺万达广场2楼"
  },
  "106": {
    "id": 106,
    "url": "https://map.bemanicn.com/shop/106",
    "name": "天朗电玩城",
    "province": "辽宁省",
    "location": "抚顺市新抚区",
    "address": "西一路31号天朗国际广场3楼"
  },
  "886": {
    "id": 886,
    "url": "https://map.bemanicn.com/shop/886",
    "name": "天隆电玩城",
    "province": "辽宁省",
    "location": "抚顺市新抚区",
    "address": "东四路7-5号"
  },
  "887": {
    "id": 887,
    "url": "https://map.bemanicn.com/shop/887",
    "name": "兴隆v动地带",
    "province": "辽宁省",
    "location": "抚顺市顺城区",
    "address": "新城东路5-18号"
  },
  "108": {
    "id": 108,
    "url": "https://map.bemanicn.com/shop/108",
    "name": "东方英雄(新瑪特店)",
    "province": "辽宁省",
    "location": "本溪市平山区",
    "address": "新瑪特四樓"
  },
  "517": {
    "id": 517,
    "url": "https://map.bemanicn.com/shop/517",
    "name": "大玩家超乐场（丹东万达店）",
    "province": "辽宁省",
    "location": "丹东市振兴区",
    "address": "锦山大街298号丹东万达广场二楼"
  },
  "111": {
    "id": 111,
    "url": "https://map.bemanicn.com/shop/111",
    "name": "V动地带",
    "province": "辽宁省",
    "location": "锦州市太和区",
    "address": "兴隆大家庭4楼"
  },
  "594": {
    "id": 594,
    "url": "https://map.bemanicn.com/shop/594",
    "name": "米奇特欢乐之星",
    "province": "辽宁省",
    "location": "营口市鲅鱼圈区",
    "address": "平安大街与海平路交汇处西南角红旺广场五楼"
  },
  "545": {
    "id": 545,
    "url": "https://map.bemanicn.com/shop/545",
    "name": "大石桥兴隆商城V动地带动漫城",
    "province": "辽宁省",
    "location": "营口市大石桥市",
    "address": "哈大中路42号"
  },
  "873": {
    "id": 873,
    "url": "https://map.bemanicn.com/shop/873",
    "name": "环游时代电玩盘锦兴隆店",
    "province": "辽宁省",
    "location": "盘锦市兴隆台区",
    "address": "双兴南路208号钻井生活广场三楼环游时代电玩娱乐城"
  },
  "1010": {
    "id": 1010,
    "url": "https://map.bemanicn.com/shop/1010",
    "name": "东方英雄（盘锦水游城店）",
    "province": "辽宁省",
    "location": "盘锦市兴隆台区",
    "address": "石油大街130号，鹏欣水游城4F"
  },
  "966": {
    "id": 966,
    "url": "https://map.bemanicn.com/shop/966",
    "name": "哥伦布美霖电玩城",
    "province": "辽宁省",
    "location": "铁岭市银州区",
    "address": "八中路附近"
  },
  "885": {
    "id": 885,
    "url": "https://map.bemanicn.com/shop/885",
    "name": "莱利动漫",
    "province": "辽宁省",
    "location": "葫芦岛市连山区",
    "address": "兴工路1号葫芦岛百货大楼5层"
  },
  "81": {
    "id": 81,
    "url": "https://map.bemanicn.com/shop/81",
    "name": "中东新天地电玩帝国",
    "province": "吉林省",
    "location": "长春市南关区",
    "address": "亚泰大街中东新天地"
  },
  "639": {
    "id": 639,
    "url": "https://map.bemanicn.com/shop/639",
    "name": "摩天活力城MALL 星际传奇",
    "province": "吉林省",
    "location": "长春市南关区",
    "address": "摩天活力城MALL 3楼星际传奇"
  },
  "978": {
    "id": 978,
    "url": "https://map.bemanicn.com/shop/978",
    "name": "电玩帝国（长春）",
    "province": "吉林省",
    "location": "长春市南关区",
    "address": "亚泰大街1138号新天地购物公园"
  },
  "75": {
    "id": 75,
    "url": "https://map.bemanicn.com/shop/75",
    "name": "宽城万达大玩家",
    "province": "吉林省",
    "location": "长春市宽城区",
    "address": "宽城万达"
  },
  "663": {
    "id": 663,
    "url": "https://map.bemanicn.com/shop/663",
    "name": "万隆电玩城",
    "province": "吉林省",
    "location": "长春市宽城区",
    "address": "青年路2199号"
  },
  "76": {
    "id": 76,
    "url": "https://map.bemanicn.com/shop/76",
    "name": "红旗街万达大玩家",
    "province": "吉林省",
    "location": "长春市朝阳区",
    "address": "红旗街616号万达广场3层"
  },
  "77": {
    "id": 77,
    "url": "https://map.bemanicn.com/shop/77",
    "name": "重庆路万达大玩家",
    "province": "吉林省",
    "location": "长春市朝阳区",
    "address": "重庆路万达"
  },
  "78": {
    "id": 78,
    "url": "https://map.bemanicn.com/shop/78",
    "name": "同志街英雄联盟",
    "province": "吉林省",
    "location": "长春市朝阳区",
    "address": "同志街英雄联盟"
  },
  "80": {
    "id": 80,
    "url": "https://map.bemanicn.com/shop/80",
    "name": "城市英雄动漫城(欧亚新生活店)",
    "province": "吉林省",
    "location": "长春市朝阳区",
    "address": "工农大路与延安大街交汇欧亚新生活购物广场C区5楼欧亚新生活店"
  },
  "83": {
    "id": 83,
    "url": "https://map.bemanicn.com/shop/83",
    "name": "巴黎春天银河世纪",
    "province": "吉林省",
    "location": "长春市朝阳区",
    "address": "红旗街巴黎春天百货"
  },
  "84": {
    "id": 84,
    "url": "https://map.bemanicn.com/shop/84",
    "name": "欢乐城电玩城",
    "province": "吉林省",
    "location": "长春市朝阳区",
    "address": "欢乐城3楼（吉大南区旁边）"
  },
  "214": {
    "id": 214,
    "url": "https://map.bemanicn.com/shop/214",
    "name": "红色星球嘉年华",
    "province": "吉林省",
    "location": "长春市朝阳区",
    "address": "红旗街959号這有山thehill2层"
  },
  "782": {
    "id": 782,
    "url": "https://map.bemanicn.com/shop/782",
    "name": "城市英雄长春亚泰新动力",
    "province": "吉林省",
    "location": "长春市二道区",
    "address": "吉林大路亚泰新动力购物广场3楼"
  },
  "712": {
    "id": 712,
    "url": "https://map.bemanicn.com/shop/712",
    "name": "巷战英雄电玩长春店",
    "province": "吉林省",
    "location": "长春市二道区",
    "address": "洋浦大街6088号欧亚万豪购物中心5楼巷战英雄电玩城"
  },
  "1001": {
    "id": 1001,
    "url": "https://map.bemanicn.com/shop/1001",
    "name": "新城吾悦大玩家",
    "province": "吉林省",
    "location": "长春市绿园区",
    "address": "皓月大路与正阳街交汇处"
  },
  "420": {
    "id": 420,
    "url": "https://map.bemanicn.com/shop/420",
    "name": "活力嘉年华",
    "province": "吉林省",
    "location": "长春市长春高新技术产业开发区",
    "address": "博文路与学府街交叉口栖乐荟购物广场3层网鱼网咖对面"
  },
  "1059": {
    "id": 1059,
    "url": "https://map.bemanicn.com/shop/1059",
    "name": "万达大玩家",
    "province": "吉林省",
    "location": "吉林市昌邑区",
    "address": "吉林大街518号"
  },
  "72": {
    "id": 72,
    "url": "https://map.bemanicn.com/shop/72",
    "name": "东方英雄嘉年华（吉林店）",
    "province": "吉林省",
    "location": "吉林市昌邑区",
    "address": "吉林财富购物广场5楼"
  },
  "900": {
    "id": 900,
    "url": "https://map.bemanicn.com/shop/900",
    "name": "电玩帝国",
    "province": "吉林省",
    "location": "吉林市船营区",
    "address": "吉林省吉林市船营区越山路378号 中东新生活3层电玩帝国"
  },
  "73": {
    "id": 73,
    "url": "https://map.bemanicn.com/shop/73",
    "name": "世宇乐园（吉林）",
    "province": "吉林省",
    "location": "吉林市丰满区",
    "address": "吉林大街1-2号 欧亚商都综合体3层"
  },
  "1034": {
    "id": 1034,
    "url": "https://map.bemanicn.com/shop/1034",
    "name": "东方英雄（桦甸店）",
    "province": "吉林省",
    "location": "吉林市桦甸市",
    "address": "明桦街道 吉林国贸桦甸购物中心"
  },
  "934": {
    "id": 934,
    "url": "https://map.bemanicn.com/shop/934",
    "name": "酷儿乐儿童乐园",
    "province": "吉林省",
    "location": "吉林市磐石市",
    "address": "磐石大街1789号商贸城3层"
  },
  "921": {
    "id": 921,
    "url": "https://map.bemanicn.com/shop/921",
    "name": "新华升购物商场城市英雄",
    "province": "吉林省",
    "location": "四平市公主岭市",
    "address": "新华升"
  },
  "74": {
    "id": 74,
    "url": "https://map.bemanicn.com/shop/74",
    "name": "双辽开玩乐电玩城",
    "province": "吉林省",
    "location": "四平市双辽市",
    "address": "万僖购物中心（老二百货）一楼西侧内部"
  },
  "475": {
    "id": 475,
    "url": "https://map.bemanicn.com/shop/475",
    "name": "大玩家（通化万达）",
    "province": "吉林省",
    "location": "通化市东昌区",
    "address": "大玩家（万达广场）"
  },
  "476": {
    "id": 476,
    "url": "https://map.bemanicn.com/shop/476",
    "name": "电玩帝国通化中东店",
    "province": "吉林省",
    "location": "通化市东昌区",
    "address": "江南新区中东城市广场2楼"
  },
  "907": {
    "id": 907,
    "url": "https://map.bemanicn.com/shop/907",
    "name": "中润电玩城",
    "province": "吉林省",
    "location": "白城市洮北区",
    "address": "青年南大街中润购物广场5楼"
  },
  "547": {
    "id": 547,
    "url": "https://map.bemanicn.com/shop/547",
    "name": "汤姆熊欢乐世界（延边）",
    "province": "吉林省",
    "location": "延边朝鲜族自治州延吉市",
    "address": "光明街608号"
  },
  "632": {
    "id": 632,
    "url": "https://map.bemanicn.com/shop/632",
    "name": "现代嘉年华珲春店",
    "province": "吉林省",
    "location": "延边朝鲜族自治州珲春市",
    "address": "沿河西街1463号现代百货"
  },
  "61": {
    "id": 61,
    "url": "https://map.bemanicn.com/shop/61",
    "name": "神采大玩家道里店",
    "province": "黑龙江省",
    "location": "哈尔滨市道里区",
    "address": "道里区中央大街232号万达影院C座1楼"
  },
  "62": {
    "id": 62,
    "url": "https://map.bemanicn.com/shop/62",
    "name": "欢乐集结地",
    "province": "黑龙江省",
    "location": "哈尔滨市道里区",
    "address": "道里区中央大街232号万达影院A座2楼(近防洪纪念塔）"
  },
  "63": {
    "id": 63,
    "url": "https://map.bemanicn.com/shop/63",
    "name": "神采大玩家哈西店",
    "province": "黑龙江省",
    "location": "哈尔滨市南岗区",
    "address": "南岗区 中兴大道168号万达广场3层"
  },
  "66": {
    "id": 66,
    "url": "https://map.bemanicn.com/shop/66",
    "name": "头号玩家电玩娱乐中心",
    "province": "黑龙江省",
    "location": "哈尔滨市南岗区",
    "address": "南岗区 学府路哈西服装城四楼"
  },
  "67": {
    "id": 67,
    "url": "https://map.bemanicn.com/shop/67",
    "name": "汤姆熊欢乐世界(红旗大街店)",
    "province": "黑龙江省",
    "location": "哈尔滨市南岗区",
    "address": "南岗区 红旗大街301号 红博会展购物广场 负1层"
  },
  "1025": {
    "id": 1025,
    "url": "https://map.bemanicn.com/shop/1025",
    "name": "城市阳光动漫城",
    "province": "黑龙江省",
    "location": "哈尔滨市松北区",
    "address": "二道街98东南方向71米"
  },
  "801": {
    "id": 801,
    "url": "https://map.bemanicn.com/shop/801",
    "name": "哈尔滨大玩家香坊万达店",
    "province": "黑龙江省",
    "location": "哈尔滨市香坊区",
    "address": "香坊区 衡山路17号万达广场3F层"
  },
  "65": {
    "id": 65,
    "url": "https://map.bemanicn.com/shop/65",
    "name": "超级星座游戏体验中心哈尔滨总店",
    "province": "黑龙江省",
    "location": "哈尔滨市香坊区",
    "address": "香坊区 动源街5号凯旋广场3楼"
  },
  "68": {
    "id": 68,
    "url": "https://map.bemanicn.com/shop/68",
    "name": "金街动漫城",
    "province": "黑龙江省",
    "location": "哈尔滨市五常市",
    "address": "五常市 循礼社区开发大街南侧运输路西侧"
  },
  "1003": {
    "id": 1003,
    "url": "https://map.bemanicn.com/shop/1003",
    "name": "快乐电堂动漫娱乐中心",
    "province": "黑龙江省",
    "location": "齐齐哈尔市龙沙区",
    "address": "卜奎大街55号"
  },
  "427": {
    "id": 427,
    "url": "https://map.bemanicn.com/shop/427",
    "name": "比优特广场电玩城",
    "province": "黑龙江省",
    "location": "鹤岗市萝北县",
    "address": "新华街与尚志路交叉口"
  },
  "607": {
    "id": 607,
    "url": "https://map.bemanicn.com/shop/607",
    "name": "博乐电玩城",
    "province": "黑龙江省",
    "location": "双鸭山市尖山区",
    "address": "松江国际8楼"
  },
  "71": {
    "id": 71,
    "url": "https://map.bemanicn.com/shop/71",
    "name": "万达广场(让胡路店)",
    "province": "黑龙江省",
    "location": "大庆市市辖区",
    "address": "万达广场(让胡路店)"
  },
  "70": {
    "id": 70,
    "url": "https://map.bemanicn.com/shop/70",
    "name": "万达广场(萨尔图店)",
    "province": "黑龙江省",
    "location": "大庆市萨尔图区",
    "address": "万达广场(萨尔图店)"
  },
  "939": {
    "id": 939,
    "url": "https://map.bemanicn.com/shop/939",
    "name": "肥宅快乐窝",
    "province": "黑龙江省",
    "location": "大庆市让胡路区",
    "address": "长青1区22号楼"
  },
  "434": {
    "id": 434,
    "url": "https://map.bemanicn.com/shop/434",
    "name": "大玩家超乐城（佳木斯）",
    "province": "黑龙江省",
    "location": "佳木斯市向阳区",
    "address": "光复西路1801号"
  },
  "497": {
    "id": 497,
    "url": "https://map.bemanicn.com/shop/497",
    "name": "神采飞扬（佳大店）",
    "province": "黑龙江省",
    "location": "佳木斯市向阳区",
    "address": "胜利路南150米"
  },
  "925": {
    "id": 925,
    "url": "https://map.bemanicn.com/shop/925",
    "name": "维纳斯音乐餐厅",
    "province": "黑龙江省",
    "location": "牡丹江市市辖区",
    "address": "东一条路平安街中央红1楼"
  },
  "6": {
    "id": 6,
    "url": "https://map.bemanicn.com/shop/6",
    "name": "风云再起人民广场店",
    "province": "上海市",
    "location": "市辖区黄浦区",
    "address": "人民大道221号上海迪美购物中心B1层227-229号、265-269号"
  },
  "279": {
    "id": 279,
    "url": "https://map.bemanicn.com/shop/279",
    "name": "汤姆熊上海黄浦新世界店",
    "province": "上海市",
    "location": "市辖区黄浦区",
    "address": "南京西路2-68号新世界城8楼汤姆熊"
  },
  "262": {
    "id": 262,
    "url": "https://map.bemanicn.com/shop/262",
    "name": "天天玩Game",
    "province": "上海市",
    "location": "市辖区徐汇区",
    "address": "华山路2088号汇银广场南楼7M层"
  },
  "8": {
    "id": 8,
    "url": "https://map.bemanicn.com/shop/8",
    "name": "熊窝KUMA Studio音游专营店",
    "province": "上海市",
    "location": "市辖区徐汇区",
    "address": "中山南二路1007号中煌大厦2楼223室"
  },
  "27": {
    "id": 27,
    "url": "https://map.bemanicn.com/shop/27",
    "name": "汤姆熊徐汇日月光店",
    "province": "上海市",
    "location": "市辖区徐汇区",
    "address": "漕宝路33-4号徐汇日月光中心B座4楼"
  },
  "28": {
    "id": 28,
    "url": "https://map.bemanicn.com/shop/28",
    "name": "汤姆熊光启城店",
    "province": "上海市",
    "location": "市辖区徐汇区",
    "address": "宜山路455号光启城时尚购物中心3楼"
  },
  "16": {
    "id": 16,
    "url": "https://map.bemanicn.com/shop/16",
    "name": "汤姆熊中山公园店",
    "province": "上海市",
    "location": "市辖区长宁区",
    "address": "长宁路1018号龙之梦购物公园红中庭6202"
  },
  "17": {
    "id": 17,
    "url": "https://map.bemanicn.com/shop/17",
    "name": "汤姆熊虹桥南丰城店",
    "province": "上海市",
    "location": "市辖区长宁区",
    "address": "遵义路100号虹桥南丰城南厅3层"
  },
  "18": {
    "id": 18,
    "url": "https://map.bemanicn.com/shop/18",
    "name": "汤姆熊百联西郊店",
    "province": "上海市",
    "location": "市辖区长宁区",
    "address": "仙霞西路88号百联西郊购物中心F4层"
  },
  "1": {
    "id": 1,
    "url": "https://map.bemanicn.com/shop/1",
    "name": "烈火游戏机娱乐",
    "province": "上海市",
    "location": "市辖区静安区",
    "address": "江宁路77-3号恒顺大楼4楼(近奉贤路)"
  },
  "9": {
    "id": 9,
    "url": "https://map.bemanicn.com/shop/9",
    "name": "汤姆熊上海大悦城店",
    "province": "上海市",
    "location": "市辖区静安区",
    "address": "西藏北路166号上海大悦城南座L6层S601&S605"
  },
  "268": {
    "id": 268,
    "url": "https://map.bemanicn.com/shop/268",
    "name": "风云再起上海长风大悦城店",
    "province": "上海市",
    "location": "市辖区普陀区",
    "address": "大渡河路178号长风大悦城室外商场3楼L3-13室"
  },
  "23": {
    "id": 23,
    "url": "https://map.bemanicn.com/shop/23",
    "name": "上海JOYPOLIS环球港店",
    "province": "上海市",
    "location": "市辖区普陀区",
    "address": "中山北路3300号(近宁夏路)环球港3-4楼(机厅在4楼)"
  },
  "583": {
    "id": 583,
    "url": "https://map.bemanicn.com/shop/583",
    "name": "风云再起(百联中环购物广场)",
    "province": "上海市",
    "location": "市辖区普陀区",
    "address": "真光路1288号百联中环购物广场F3"
  },
  "19": {
    "id": 19,
    "url": "https://map.bemanicn.com/shop/19",
    "name": "汤姆熊虹口足球场店",
    "province": "上海市",
    "location": "市辖区虹口区",
    "address": "西江湾路388号凯德龙之梦5楼"
  },
  "21": {
    "id": 21,
    "url": "https://map.bemanicn.com/shop/21",
    "name": "汤姆熊百联又一城8F店",
    "province": "上海市",
    "location": "市辖区杨浦区",
    "address": "淞沪路8号百联又一城购物中心8楼"
  },
  "22": {
    "id": 22,
    "url": "https://map.bemanicn.com/shop/22",
    "name": "星际传奇合生店",
    "province": "上海市",
    "location": "市辖区杨浦区",
    "address": "翔殷路1099号上海合生国际广场3楼"
  },
  "1045": {
    "id": 1045,
    "url": "https://map.bemanicn.com/shop/1045",
    "name": "星乐荟上海闵行华侨城店",
    "province": "上海市",
    "location": "市辖区闵行区",
    "address": ".上海市闵行区陈行公路2688号华侨城二楼星乐荟欢乐世界"
  },
  "24": {
    "id": 24,
    "url": "https://map.bemanicn.com/shop/24",
    "name": "汤姆熊南方商城店",
    "province": "上海市",
    "location": "市辖区闵行区",
    "address": "沪闵路7388号百联南方购物中心F5"
  },
  "25": {
    "id": 25,
    "url": "https://map.bemanicn.com/shop/25",
    "name": "菲菲羊游乐龙湖天街店",
    "province": "上海市",
    "location": "市辖区闵行区",
    "address": "剑川路1000号龙湖上海闵行天街L3"
  },
  "26": {
    "id": 26,
    "url": "https://map.bemanicn.com/shop/26",
    "name": "奇奇乐园仲盛世界城店",
    "province": "上海市",
    "location": "市辖区闵行区",
    "address": "都市路5001号仲盛世界商城 3F-29/30/61"
  },
  "797": {
    "id": 797,
    "url": "https://map.bemanicn.com/shop/797",
    "name": "大玩家上海闵行浦江万达店",
    "province": "上海市",
    "location": "市辖区闵行区",
    "address": "浦江镇浦江万达广场2楼"
  },
  "451": {
    "id": 451,
    "url": "https://map.bemanicn.com/shop/451",
    "name": "汤姆熊莘庄龙之梦店",
    "province": "上海市",
    "location": "市辖区闵行区",
    "address": "沪闵路6088号3楼"
  },
  "722": {
    "id": 722,
    "url": "https://map.bemanicn.com/shop/722",
    "name": "汤姆熊七宝宝龙店",
    "province": "上海市",
    "location": "市辖区闵行区",
    "address": "漕宝路3299号七宝宝龙城市广场3楼"
  },
  "732": {
    "id": 732,
    "url": "https://map.bemanicn.com/shop/732",
    "name": "大玩家(马桥万达店)",
    "province": "上海市",
    "location": "市辖区闵行区",
    "address": "富文路与银秋路交叉口东南侧万达广场三楼大玩家"
  },
  "491": {
    "id": 491,
    "url": "https://map.bemanicn.com/shop/491",
    "name": "风云再起上海维璟广场店",
    "province": "上海市",
    "location": "市辖区闵行区",
    "address": "七莘路1507号维璟广场L4层"
  },
  "29": {
    "id": 29,
    "url": "https://map.bemanicn.com/shop/29",
    "name": "汤姆熊宝乐汇店",
    "province": "上海市",
    "location": "市辖区宝山区",
    "address": "牡丹江路1569号宝乐汇3楼"
  },
  "654": {
    "id": 654,
    "url": "https://map.bemanicn.com/shop/654",
    "name": "上海菲菲羊游乐宝杨宝龙店",
    "province": "上海市",
    "location": "市辖区宝山区",
    "address": "上海市市辖区宝山区同济路669弄(宝龙三楼)"
  },
  "492": {
    "id": 492,
    "url": "https://map.bemanicn.com/shop/492",
    "name": "上海大玩家（宝山万达店）",
    "province": "上海市",
    "location": "市辖区宝山区",
    "address": "一二八纪念路968号3F"
  },
  "30": {
    "id": 30,
    "url": "https://map.bemanicn.com/shop/30",
    "name": "大玩家江桥万达店",
    "province": "上海市",
    "location": "市辖区嘉定区",
    "address": "金沙江西路1051号万达广场(江桥店)娱乐楼1楼"
  },
  "31": {
    "id": 31,
    "url": "https://map.bemanicn.com/shop/31",
    "name": "汤姆熊百联嘉定店",
    "province": "上海市",
    "location": "市辖区嘉定区",
    "address": "澄浏中路3172号百联嘉定购物中心F3"
  },
  "592": {
    "id": 592,
    "url": "https://map.bemanicn.com/shop/592",
    "name": "星际传奇(南翔印象城MEGA店)",
    "province": "上海市",
    "location": "市辖区嘉定区",
    "address": "陈翔公路2299号上海南翔印象城MEGA四楼"
  },
  "10": {
    "id": 10,
    "url": "https://map.bemanicn.com/shop/10",
    "name": "汤姆熊正大广场店",
    "province": "上海市",
    "location": "市辖区浦东新区",
    "address": "陆家嘴西路168号正大广场2F层"
  },
  "11": {
    "id": 11,
    "url": "https://map.bemanicn.com/shop/11",
    "name": "风云再起上海长泰广场店",
    "province": "上海市",
    "location": "市辖区浦东新区",
    "address": "祖冲之路1239弄长泰商业广场地下一层59-1室"
  },
  "12": {
    "id": 12,
    "url": "https://map.bemanicn.com/shop/12",
    "name": "汤姆熊旭辉广场店",
    "province": "上海市",
    "location": "市辖区浦东新区",
    "address": "张杨路2389弄4号LCM置汇旭辉广场4F-1B"
  },
  "525": {
    "id": 525,
    "url": "https://map.bemanicn.com/shop/525",
    "name": "汤姆熊世博源店",
    "province": "上海市",
    "location": "市辖区浦东新区",
    "address": "上南路168号世博源5区G层"
  },
  "14": {
    "id": 14,
    "url": "https://map.bemanicn.com/shop/14",
    "name": "汤姆熊百联东郊店",
    "province": "上海市",
    "location": "市辖区浦东新区",
    "address": "沪南路2420号百联东郊购物中心F3层"
  },
  "15": {
    "id": 15,
    "url": "https://map.bemanicn.com/shop/15",
    "name": "大玩家周浦万达广场店",
    "province": "上海市",
    "location": "市辖区浦东新区",
    "address": "年家浜路437号万达广场(周浦店)2楼(年家浜路与沪南公路交汇处)"
  },
  "1039": {
    "id": 1039,
    "url": "https://map.bemanicn.com/shop/1039",
    "name": "风云再起龙阳广场店",
    "province": "上海市",
    "location": "市辖区浦东新区",
    "address": "龙阳路2000号龙阳广场2楼  地铁4号出口右手扶梯上2楼右前方"
  },
  "272": {
    "id": 272,
    "url": "https://map.bemanicn.com/shop/272",
    "name": "星乐荟金汇广场店",
    "province": "上海市",
    "location": "市辖区浦东新区",
    "address": "华夏东路2255号浦商百货金汇广场三楼"
  },
  "455": {
    "id": 455,
    "url": "https://map.bemanicn.com/shop/455",
    "name": "风云再起上海文峰广场店",
    "province": "上海市",
    "location": "市辖区浦东新区",
    "address": "张杨北路801号四楼"
  },
  "750": {
    "id": 750,
    "url": "https://map.bemanicn.com/shop/750",
    "name": "汤姆熊 森兰花园城店",
    "province": "上海市",
    "location": "市辖区浦东新区",
    "address": "启帆路517路森兰花园城3楼"
  },
  "1007": {
    "id": 1007,
    "url": "https://map.bemanicn.com/shop/1007",
    "name": "汤姆熊上海浦东lalaport店",
    "province": "上海市",
    "location": "市辖区浦东新区",
    "address": "新金桥路738号3楼320"
  },
  "813": {
    "id": 813,
    "url": "https://map.bemanicn.com/shop/813",
    "name": "大玩家上海金山万达店",
    "province": "上海市",
    "location": "市辖区金山区",
    "address": "龙皓路1088号万达广场F3层"
  },
  "32": {
    "id": 32,
    "url": "https://map.bemanicn.com/shop/32",
    "name": "大玩家松江万达店",
    "province": "上海市",
    "location": "市辖区松江区",
    "address": "广富林路658号万达广场(松江店)2楼"
  },
  "659": {
    "id": 659,
    "url": "https://map.bemanicn.com/shop/659",
    "name": "大玩家青浦万达茂店",
    "province": "上海市",
    "location": "市辖区青浦区",
    "address": "淀山湖大道851号2楼"
  },
  "800": {
    "id": 800,
    "url": "https://map.bemanicn.com/shop/800",
    "name": "大玩家上海崇明万达店",
    "province": "上海市",
    "location": "市辖区崇明区",
    "address": "城桥镇崇明大道8388号崇明万达广场2F-C"
  },
  "318": {
    "id": 318,
    "url": "https://map.bemanicn.com/shop/318",
    "name": "风云再起(南京常发广场店)",
    "province": "江苏省",
    "location": "南京市玄武区",
    "address": "红山南路常发广场88-1号"
  },
  "315": {
    "id": 315,
    "url": "https://map.bemanicn.com/shop/315",
    "name": "风云再起(南京新街口正洪大厦店)大风",
    "province": "江苏省",
    "location": "南京市秦淮区",
    "address": "洪武路38号正洪大厦102栋"
  },
  "624": {
    "id": 624,
    "url": "https://map.bemanicn.com/shop/624",
    "name": "风云再起(南京新街口天丰大厦店)小风",
    "province": "江苏省",
    "location": "南京市秦淮区",
    "address": "洪武路26号天丰大厦一楼"
  },
  "447": {
    "id": 447,
    "url": "https://map.bemanicn.com/shop/447",
    "name": "鸽屋咕咕咕",
    "province": "江苏省",
    "location": "南京市秦淮区",
    "address": "中山南路101号 金銮大厦20楼 A2003"
  },
  "484": {
    "id": 484,
    "url": "https://map.bemanicn.com/shop/484",
    "name": "风云再起(南京水平方店)",
    "province": "江苏省",
    "location": "南京市秦淮区",
    "address": "建康路3号水平方F3层F305"
  },
  "814": {
    "id": 814,
    "url": "https://map.bemanicn.com/shop/814",
    "name": "大玩家南京建邺万达店",
    "province": "江苏省",
    "location": "南京市建邺区",
    "address": "云锦路58号建邺万达广场娱乐楼2层(近水西门大街)"
  },
  "612": {
    "id": 612,
    "url": "https://map.bemanicn.com/shop/612",
    "name": "风云再起(南京河西金鹰世界店)",
    "province": "江苏省",
    "location": "南京市建邺区",
    "address": "河西中央商务区应天大街888号金鹰世界3楼"
  },
  "485": {
    "id": 485,
    "url": "https://map.bemanicn.com/shop/485",
    "name": "风云再起(南京湖南路店)",
    "province": "江苏省",
    "location": "南京市鼓楼区",
    "address": "湖北路68号天狮百盛1层"
  },
  "641": {
    "id": 641,
    "url": "https://map.bemanicn.com/shop/641",
    "name": "风云再起(南京弘阳广场店)",
    "province": "江苏省",
    "location": "南京市浦口区",
    "address": "大桥北路48号弘阳广场B2区8号"
  },
  "758": {
    "id": 758,
    "url": "https://map.bemanicn.com/shop/758",
    "name": "大玩家超乐场（万达广场店）",
    "province": "江苏省",
    "location": "南京市江宁区",
    "address": "南京市江宁区竹山路68号万达广场F2"
  },
  "730": {
    "id": 730,
    "url": "https://map.bemanicn.com/shop/730",
    "name": "星悦潮玩",
    "province": "江苏省",
    "location": "无锡市锡山区",
    "address": "东亭街道锡沪路与柏庄路交叉口西南锡东八佰伴3楼星悦潮玩"
  },
  "825": {
    "id": 825,
    "url": "https://map.bemanicn.com/shop/825",
    "name": "大玩家无锡滨湖万达店",
    "province": "江苏省",
    "location": "无锡市滨湖区",
    "address": "达汇街万达广场B区"
  },
  "658": {
    "id": 658,
    "url": "https://map.bemanicn.com/shop/658",
    "name": "汤姆熊欢乐世界（无锡海岸城店）",
    "province": "江苏省",
    "location": "无锡市滨湖区",
    "address": "立信大道168号海岸城A座L3楼"
  },
  "299": {
    "id": 299,
    "url": "https://map.bemanicn.com/shop/299",
    "name": "风云再起(无锡清扬茂业天地店)",
    "province": "江苏省",
    "location": "无锡市梁溪区",
    "address": "清扬路茂业天地3层"
  },
  "316": {
    "id": 316,
    "url": "https://map.bemanicn.com/shop/316",
    "name": "风云再起无锡苏宁广场店",
    "province": "江苏省",
    "location": "无锡市梁溪区",
    "address": "苏宁广场3层309E号商铺"
  },
  "571": {
    "id": 571,
    "url": "https://map.bemanicn.com/shop/571",
    "name": "大玩家(宜兴万达)",
    "province": "江苏省",
    "location": "无锡市宜兴市",
    "address": "东氿大道宜兴万达广场2F层"
  },
  "889": {
    "id": 889,
    "url": "https://map.bemanicn.com/shop/889",
    "name": "第一回合宜兴八佰伴店",
    "province": "江苏省",
    "location": "无锡市宜兴市",
    "address": "解放东路288号宜兴八佰伴购物中心4F层"
  },
  "901": {
    "id": 901,
    "url": "https://map.bemanicn.com/shop/901",
    "name": "梦想嘻乐园",
    "province": "江苏省",
    "location": "无锡市宜兴市",
    "address": "周铁镇华仁大道与解放路交叉路口西侧大梦想城2楼"
  },
  "498": {
    "id": 498,
    "url": "https://map.bemanicn.com/shop/498",
    "name": "缤纷乐园",
    "province": "江苏省",
    "location": "徐州市鼓楼区",
    "address": "中山北路与少华街交叉口东南50米"
  },
  "499": {
    "id": 499,
    "url": "https://map.bemanicn.com/shop/499",
    "name": "极限玩家（绿地缤纷城）",
    "province": "江苏省",
    "location": "徐州市云龙区",
    "address": "唐盛路7号"
  },
  "324": {
    "id": 324,
    "url": "https://map.bemanicn.com/shop/324",
    "name": "城市英雄常州天宁吾悦广场店",
    "province": "江苏省",
    "location": "常州市天宁区",
    "address": "东方西路和名山路交叉口天宁吾悦广场三楼Z13"
  },
  "956": {
    "id": 956,
    "url": "https://map.bemanicn.com/shop/956",
    "name": "天空之城（常州吾悦店）",
    "province": "江苏省",
    "location": "常州市钟楼区",
    "address": "延陵西路123号吾悦国际3楼"
  },
  "681": {
    "id": 681,
    "url": "https://map.bemanicn.com/shop/681",
    "name": "大玩家超乐场(常州新北万达店)",
    "province": "江苏省",
    "location": "常州市新北区",
    "address": "通江中路88号万达广场3楼"
  },
  "271": {
    "id": 271,
    "url": "https://map.bemanicn.com/shop/271",
    "name": "乐满堂电玩武进吾悅广场店",
    "province": "江苏省",
    "location": "常州市武进区",
    "address": "武宜中路188号新城吾悦广场3楼301室"
  },
  "933": {
    "id": 933,
    "url": "https://map.bemanicn.com/shop/933",
    "name": "汤姆熊欢乐世界（苏州）",
    "province": "江苏省",
    "location": "苏州市虎丘区",
    "address": "长江路436号绿宝广场2期3楼"
  },
  "687": {
    "id": 687,
    "url": "https://map.bemanicn.com/shop/687",
    "name": "长申电玩城",
    "province": "江苏省",
    "location": "苏州市吴中区",
    "address": "郭新东路95号长申购物广场4层"
  },
  "190": {
    "id": 190,
    "url": "https://map.bemanicn.com/shop/190",
    "name": "风云再起观前店",
    "province": "江苏省",
    "location": "苏州市姑苏区",
    "address": "苏州市姑苏区施相公弄24-36号粤海广场1号楼3楼"
  },
  "704": {
    "id": 704,
    "url": "https://map.bemanicn.com/shop/704",
    "name": "风云再起苏州莱迪店",
    "province": "江苏省",
    "location": "苏州市姑苏区",
    "address": "观前街碧凤坊41号韩国城3楼"
  },
  "880": {
    "id": 880,
    "url": "https://map.bemanicn.com/shop/880",
    "name": "第一回合 苏州中心",
    "province": "江苏省",
    "location": "苏州市苏州工业园区",
    "address": "苏绣路与星港街交叉口"
  },
  "644": {
    "id": 644,
    "url": "https://map.bemanicn.com/shop/644",
    "name": "迪诺欢乐世界（星光天地店）",
    "province": "江苏省",
    "location": "苏州市常熟市",
    "address": "闽江东路9号星光天地3F层"
  },
  "566": {
    "id": 566,
    "url": "https://map.bemanicn.com/shop/566",
    "name": "天空之城（张家港）",
    "province": "江苏省",
    "location": "苏州市张家港市",
    "address": "河西路88号6F"
  },
  "648": {
    "id": 648,
    "url": "https://map.bemanicn.com/shop/648",
    "name": "城市英雄",
    "province": "江苏省",
    "location": "苏州市张家港市",
    "address": "金港大道338号"
  },
  "269": {
    "id": 269,
    "url": "https://map.bemanicn.com/shop/269",
    "name": "星际传奇昆山万象汇店",
    "province": "江苏省",
    "location": "苏州市昆山市",
    "address": "玉山镇前进西路1266号昆山万象汇商业中心L3层L323号商铺"
  },
  "871": {
    "id": 871,
    "url": "https://map.bemanicn.com/shop/871",
    "name": "第一回合南通中南城店",
    "province": "江苏省",
    "location": "南通市崇川区",
    "address": "桃园路12号中南城购物中心3楼第一回合"
  },
  "466": {
    "id": 466,
    "url": "https://map.bemanicn.com/shop/466",
    "name": "天空之城（南通）",
    "province": "江苏省",
    "location": "南通市崇川区",
    "address": "圆融购物中心3F"
  },
  "759": {
    "id": 759,
    "url": "https://map.bemanicn.com/shop/759",
    "name": "乐满堂欢乐王国南通崇川店",
    "province": "江苏省",
    "location": "南通市崇川区",
    "address": "青年中路星城路交汇处大有境购物中心3楼"
  },
  "746": {
    "id": 746,
    "url": "https://map.bemanicn.com/shop/746",
    "name": "嗨倍堂超级乐园(南通)",
    "province": "江苏省",
    "location": "南通市海门市",
    "address": "南海路南长江路西侧900号龙信广场3楼"
  },
  "438": {
    "id": 438,
    "url": "https://map.bemanicn.com/shop/438",
    "name": "大玩家（连云港万达广场店）",
    "province": "江苏省",
    "location": "连云港市市辖区",
    "address": "凌州东路7号万达广场二楼"
  },
  "512": {
    "id": 512,
    "url": "https://map.bemanicn.com/shop/512",
    "name": "大玩家（楚州万达店）",
    "province": "江苏省",
    "location": "淮安市淮安区",
    "address": "翔宇大道688号"
  },
  "513": {
    "id": 513,
    "url": "https://map.bemanicn.com/shop/513",
    "name": "大玩家（淮安万达店）",
    "province": "江苏省",
    "location": "淮安市清江浦区",
    "address": "翔宇大道万达广场3层大玩家内"
  },
  "515": {
    "id": 515,
    "url": "https://map.bemanicn.com/shop/515",
    "name": "城市英雄（淮安店）",
    "province": "江苏省",
    "location": "淮安市清江浦区",
    "address": "清江浦区凤里路1号吾悦广场二楼Z05-1"
  },
  "462": {
    "id": 462,
    "url": "https://map.bemanicn.com/shop/462",
    "name": "风云再起茂业时代店",
    "province": "江苏省",
    "location": "淮安市清江浦区",
    "address": "淮海北路10号淮安茂业置业有限公司"
  },
  "500": {
    "id": 500,
    "url": "https://map.bemanicn.com/shop/500",
    "name": "极速时代动漫城",
    "province": "江苏省",
    "location": "淮安市清江浦区",
    "address": "淮海东路142号中央国际新亚广场7层"
  },
  "514": {
    "id": 514,
    "url": "https://map.bemanicn.com/shop/514",
    "name": "涟水德和超市",
    "province": "江苏省",
    "location": "淮安市涟水县",
    "address": "天元路德和超市"
  },
  "823": {
    "id": 823,
    "url": "https://map.bemanicn.com/shop/823",
    "name": "城市英雄扬州邗江吾悦广场店",
    "province": "江苏省",
    "location": "扬州市邗江区",
    "address": "扬州新城吾悦广场"
  },
  "1014": {
    "id": 1014,
    "url": "https://map.bemanicn.com/shop/1014",
    "name": "纷纷乐园扬州邗江文昌店",
    "province": "江苏省",
    "location": "扬州市邗江区",
    "address": "文昌中路618号中集文昌商业中心1号楼201铺"
  },
  "322": {
    "id": 322,
    "url": "https://map.bemanicn.com/shop/322",
    "name": "风云再起镇江苏宁广场店",
    "province": "江苏省",
    "location": "镇江市京口区",
    "address": "解放路111号苏宁广场3楼风云再起"
  },
  "453": {
    "id": 453,
    "url": "https://map.bemanicn.com/shop/453",
    "name": "城市英雄中央商场店",
    "province": "江苏省",
    "location": "宿迁市宿城区",
    "address": "幸福南路88号"
  },
  "454": {
    "id": 454,
    "url": "https://map.bemanicn.com/shop/454",
    "name": "风云再起宝龙广场店",
    "province": "江苏省",
    "location": "宿迁市宿城区",
    "address": "西湖路6号宝龙城市广场F4"
  },
  "317": {
    "id": 317,
    "url": "https://map.bemanicn.com/shop/317",
    "name": "第一回合(杭州湖滨银泰店)",
    "province": "浙江省",
    "location": "杭州市上城区",
    "address": "延安路239号杭州湖滨银泰IN77D区B1层日式街区"
  },
  "320": {
    "id": 320,
    "url": "https://map.bemanicn.com/shop/320",
    "name": "风云再起杭州店",
    "province": "浙江省",
    "location": "杭州市下城区",
    "address": "东文路与长浜路交汇处新天地购物中心五楼"
  },
  "301": {
    "id": 301,
    "url": "https://map.bemanicn.com/shop/301",
    "name": "量子空间杭州江干火车东站店",
    "province": "浙江省",
    "location": "杭州市江干区",
    "address": "新风路272号火车东站西广场C座一层量子空间未来主题乐园"
  },
  "872": {
    "id": 872,
    "url": "https://map.bemanicn.com/shop/872",
    "name": "木马王国(杭州天虹购物中心店)",
    "province": "浙江省",
    "location": "杭州市江干区",
    "address": "新塘路108号天虹购物中心F3"
  },
  "830": {
    "id": 830,
    "url": "https://map.bemanicn.com/shop/830",
    "name": "第一回合（杭州城西银泰店）",
    "province": "浙江省",
    "location": "杭州市拱墅区",
    "address": "丰潭路380号银泰城(城西店)3层（靠近4号门）"
  },
  "459": {
    "id": 459,
    "url": "https://map.bemanicn.com/shop/459",
    "name": "第一回合（杭州西溪银泰城店）",
    "province": "浙江省",
    "location": "杭州市西湖区",
    "address": "双龙街588号西溪银泰城东区F3（靠近二号口）"
  },
  "273": {
    "id": 273,
    "url": "https://map.bemanicn.com/shop/273",
    "name": "第一回合（星光国际广场店）",
    "province": "浙江省",
    "location": "杭州市滨江区",
    "address": "江南大道228号星光国际2号楼2楼"
  },
  "992": {
    "id": 992,
    "url": "https://map.bemanicn.com/shop/992",
    "name": "第一回合（宝龙城店）",
    "province": "浙江省",
    "location": "杭州市滨江区",
    "address": "滨盛路3867号宝龙城3楼"
  },
  "335": {
    "id": 335,
    "url": "https://map.bemanicn.com/shop/335",
    "name": "第一回合（良渚永旺梦乐城店）",
    "province": "浙江省",
    "location": "杭州市余杭区",
    "address": "古墩路1888号永旺梦乐城购物中心3层"
  },
  "337": {
    "id": 337,
    "url": "https://map.bemanicn.com/shop/337",
    "name": "万达大玩家（杭州）",
    "province": "浙江省",
    "location": "杭州市余杭区",
    "address": "未来科技城二楼大玩家"
  },
  "770": {
    "id": 770,
    "url": "https://map.bemanicn.com/shop/770",
    "name": "境界站甬家老年活动中心",
    "province": "浙江省",
    "location": "宁波市海曙区",
    "address": "中山东路238号银泰百货东门店，四楼时溪旅人洋装"
  },
  "342": {
    "id": 342,
    "url": "https://map.bemanicn.com/shop/342",
    "name": "汤姆熊欢乐世界天一店",
    "province": "浙江省",
    "location": "宁波市海曙区",
    "address": "华楼巷76号"
  },
  "341": {
    "id": 341,
    "url": "https://map.bemanicn.com/shop/341",
    "name": "宁波工程学院东校区[宁工音游社]",
    "province": "浙江省",
    "location": "宁波市江北区",
    "address": "风华路201号宁波工程学院【详细地址请加群预约：宁工音游社 167837761】"
  },
  "596": {
    "id": 596,
    "url": "https://map.bemanicn.com/shop/596",
    "name": "壹家庭游乐园(宁波店)",
    "province": "浙江省",
    "location": "宁波市北仑区",
    "address": "黄山路857号富邦世纪广场7幢301室（富邦城D区3F）"
  },
  "340": {
    "id": 340,
    "url": "https://map.bemanicn.com/shop/340",
    "name": "神采飞扬鄞州万达店",
    "province": "浙江省",
    "location": "宁波市鄞州区",
    "address": "四明中路999号鄞州万达广场2F(909号？）"
  },
  "509": {
    "id": 509,
    "url": "https://map.bemanicn.com/shop/509",
    "name": "星际传奇（宁波万象汇）",
    "province": "浙江省",
    "location": "宁波市鄞州区",
    "address": "钱湖北路267号宁波万象汇商业广场第L4层L417-L418号"
  },
  "816": {
    "id": 816,
    "url": "https://map.bemanicn.com/shop/816",
    "name": "城市英雄慈溪吾悦广场店",
    "province": "浙江省",
    "location": "宁波市慈溪市",
    "address": "新城大道南路1449号新城吾悦广场3楼3001/3050"
  },
  "533": {
    "id": 533,
    "url": "https://map.bemanicn.com/shop/533",
    "name": "奇特冰雪乐园",
    "province": "浙江省",
    "location": "温州市鹿城区",
    "address": "瓯江路589号杨府山涂村"
  },
  "343": {
    "id": 343,
    "url": "https://map.bemanicn.com/shop/343",
    "name": "潮人电玩",
    "province": "浙江省",
    "location": "温州市鹿城区",
    "address": "第一桥纱帽河商场2楼(近开太百货)"
  },
  "344": {
    "id": 344,
    "url": "https://map.bemanicn.com/shop/344",
    "name": "佐佐佑佑电玩城",
    "province": "浙江省",
    "location": "温州市鹿城区",
    "address": "公园路163号名城广场3F"
  },
  "1060": {
    "id": 1060,
    "url": "https://map.bemanicn.com/shop/1060",
    "name": "天空之城（温州吾悦店）",
    "province": "浙江省",
    "location": "温州市龙湾区",
    "address": "雁荡西路与上江路交叉口"
  },
  "883": {
    "id": 883,
    "url": "https://map.bemanicn.com/shop/883",
    "name": "大玩家超乐场（温州龙湾万达店）",
    "province": "浙江省",
    "location": "温州市龙湾区",
    "address": "永定路1188号万达广场万达百货2层2号门"
  },
  "345": {
    "id": 345,
    "url": "https://map.bemanicn.com/shop/345",
    "name": "星际传奇（温州万象城）",
    "province": "浙江省",
    "location": "温州市瓯海区",
    "address": "华润万象城3F"
  },
  "629": {
    "id": 629,
    "url": "https://map.bemanicn.com/shop/629",
    "name": "部落酷玩",
    "province": "浙江省",
    "location": "温州市瓯海区",
    "address": "瓯海大道1299号银泰百货3层L3010-3013"
  },
  "348": {
    "id": 348,
    "url": "https://map.bemanicn.com/shop/348",
    "name": "鳌江万达大玩家",
    "province": "浙江省",
    "location": "温州市平阳县",
    "address": "鳌江车站大道88号万达广场3层"
  },
  "947": {
    "id": 947,
    "url": "https://map.bemanicn.com/shop/947",
    "name": "银泰城欢乐玩潮",
    "province": "浙江省",
    "location": "温州市平阳县",
    "address": "鳌江镇车站大道1188号"
  },
  "775": {
    "id": 775,
    "url": "https://map.bemanicn.com/shop/775",
    "name": "环游嘉年华瑞安新湖广场店",
    "province": "浙江省",
    "location": "温州市瑞安市",
    "address": "万松东路1558号新湖广场L218"
  },
  "569": {
    "id": 569,
    "url": "https://map.bemanicn.com/shop/569",
    "name": "奇乐熊儿童主题乐园",
    "province": "浙江省",
    "location": "温州市瑞安市",
    "address": "安康路？号－待考证"
  },
  "346": {
    "id": 346,
    "url": "https://map.bemanicn.com/shop/346",
    "name": "瑞安城市英雄影城店",
    "province": "浙江省",
    "location": "温州市瑞安市",
    "address": "瑞安广场瑞安电影城1F"
  },
  "725": {
    "id": 725,
    "url": "https://map.bemanicn.com/shop/725",
    "name": "摩兜欢乐岛",
    "province": "浙江省",
    "location": "温州市瑞安市",
    "address": "瑞祥大道与罗阳大道交汇处东南角新城吾悦广场F3层3013-2"
  },
  "589": {
    "id": 589,
    "url": "https://map.bemanicn.com/shop/589",
    "name": "乐满堂欢乐王国嘉兴店",
    "province": "浙江省",
    "location": "嘉兴市南湖区",
    "address": "城南路与由拳路交叉口正南方向150米1532号华府广场2F-012、2F-013号"
  },
  "349": {
    "id": 349,
    "url": "https://map.bemanicn.com/shop/349",
    "name": "绍兴柯桥区万达大玩家",
    "province": "浙江省",
    "location": "绍兴市柯桥区",
    "address": "钱陶公路799号万达广场F3层"
  },
  "351": {
    "id": 351,
    "url": "https://map.bemanicn.com/shop/351",
    "name": "万达广场大玩家（绍兴）",
    "province": "浙江省",
    "location": "绍兴市柯桥区",
    "address": "称山北路399号万达广场F3层"
  },
  "350": {
    "id": 350,
    "url": "https://map.bemanicn.com/shop/350",
    "name": "时代潮城",
    "province": "浙江省",
    "location": "绍兴市上虞区",
    "address": "百官街道市民大道621号时代潮城5楼"
  },
  "352": {
    "id": 352,
    "url": "https://map.bemanicn.com/shop/352",
    "name": "万达广场大玩家超乐场（金华）",
    "province": "浙江省",
    "location": "金华市金东区",
    "address": "李渔东路366号万达广场2号门2楼大玩家超乐场"
  },
  "291": {
    "id": 291,
    "url": "https://map.bemanicn.com/shop/291",
    "name": "城市英雄(义乌吾悦店)",
    "province": "浙江省",
    "location": "金华市义乌市",
    "address": "新城吾悦广场3楼3006商铺"
  },
  "859": {
    "id": 859,
    "url": "https://map.bemanicn.com/shop/859",
    "name": "天空之城游乐体验世界（东港店）",
    "province": "浙江省",
    "location": "舟山市普陀区",
    "address": "兴普大道288号凯虹广场7楼"
  },
  "919": {
    "id": 919,
    "url": "https://map.bemanicn.com/shop/919",
    "name": "星际传奇（台州青悦城店）",
    "province": "浙江省",
    "location": "台州市椒江区",
    "address": "中心大道555号青悦城2楼"
  },
  "991": {
    "id": 991,
    "url": "https://map.bemanicn.com/shop/991",
    "name": "Play1互动娱乐",
    "province": "浙江省",
    "location": "台州市椒江区",
    "address": "开发大道799号万达广场3楼"
  },
  "1033": {
    "id": 1033,
    "url": "https://map.bemanicn.com/shop/1033",
    "name": "摩兜欢乐岛（黄岩吾悦店）",
    "province": "浙江省",
    "location": "台州市黄岩区",
    "address": "吾悦广场三楼摩兜欢乐岛"
  },
  "1031": {
    "id": 1031,
    "url": "https://map.bemanicn.com/shop/1031",
    "name": "super101潮范娱乐中心",
    "province": "安徽省",
    "location": "合肥市庐阳区",
    "address": "逍遥津街道淮河路步行街118号城改时代1层"
  },
  "411": {
    "id": 411,
    "url": "https://map.bemanicn.com/shop/411",
    "name": "炫锋超级电玩（步行街店）",
    "province": "安徽省",
    "location": "合肥市庐阳区",
    "address": "逍遥津街道寿春路93号美林美妆B1层"
  },
  "225": {
    "id": 225,
    "url": "https://map.bemanicn.com/shop/225",
    "name": "风云再起（合肥店）",
    "province": "安徽省",
    "location": "合肥市庐阳区",
    "address": "淮河路步行街风云再起（合肥店）（北含山路东侧 百盛隔壁）"
  },
  "789": {
    "id": 789,
    "url": "https://map.bemanicn.com/shop/789",
    "name": "大玩家（天鹅湖万达）",
    "province": "安徽省",
    "location": "合肥市蜀山区",
    "address": "南二环路3818号万达广场2F"
  },
  "226": {
    "id": 226,
    "url": "https://map.bemanicn.com/shop/226",
    "name": "天空之城（之心城店）",
    "province": "安徽省",
    "location": "合肥市蜀山区",
    "address": "长江西路187号之心城7F层7F-12"
  },
  "757": {
    "id": 757,
    "url": "https://map.bemanicn.com/shop/757",
    "name": "星世纪电玩台球中心",
    "province": "安徽省",
    "location": "合肥市蜀山区",
    "address": "金寨路811号(金寨路与南二环交口)"
  },
  "546": {
    "id": 546,
    "url": "https://map.bemanicn.com/shop/546",
    "name": "大玩家（包河万达）",
    "province": "安徽省",
    "location": "合肥市包河区",
    "address": "马鞍山路130号F2"
  },
  "633": {
    "id": 633,
    "url": "https://map.bemanicn.com/shop/633",
    "name": "真快活合肥银泰城店",
    "province": "安徽省",
    "location": "合肥市包河区",
    "address": "云谷路1718号银泰城"
  },
  "227": {
    "id": 227,
    "url": "https://map.bemanicn.com/shop/227",
    "name": "和音屋(已暂停营业)",
    "province": "安徽省",
    "location": "合肥市包河区",
    "address": "马鞍山路1号（马鞍山路与一环路交口西南侧东环广场B座1406室）"
  },
  "645": {
    "id": 645,
    "url": "https://map.bemanicn.com/shop/645",
    "name": "风云再起苏宁广场店",
    "province": "安徽省",
    "location": "芜湖市镜湖区",
    "address": "苏宁广场三楼"
  },
  "853": {
    "id": 853,
    "url": "https://map.bemanicn.com/shop/853",
    "name": "星际传奇蚌埠店",
    "province": "安徽省",
    "location": "蚌埠市龙子湖区",
    "address": "东海大道4000号"
  },
  "852": {
    "id": 852,
    "url": "https://map.bemanicn.com/shop/852",
    "name": "大玩家（蚌埠万达店）",
    "province": "安徽省",
    "location": "蚌埠市蚌山区",
    "address": "东海大道4399号"
  },
  "909": {
    "id": 909,
    "url": "https://map.bemanicn.com/shop/909",
    "name": "酷玩电玩城",
    "province": "安徽省",
    "location": "淮南市凤台县",
    "address": "凤台县城关镇青年北路金汇广场内永辉超市旁"
  },
  "784": {
    "id": 784,
    "url": "https://map.bemanicn.com/shop/784",
    "name": "打上花火铜陵吾悦广场店",
    "province": "安徽省",
    "location": "铜陵市铜官区",
    "address": "翠湖二路铜陵吾悦广场"
  },
  "701": {
    "id": 701,
    "url": "https://map.bemanicn.com/shop/701",
    "name": "天空之城电玩中心",
    "province": "安徽省",
    "location": "安庆市大观区",
    "address": "市府路1号汇峰广场"
  },
  "300": {
    "id": 300,
    "url": "https://map.bemanicn.com/shop/300",
    "name": "酷卡贝滁州琅琊乐彩城店",
    "province": "安徽省",
    "location": "滁州市琅琊区",
    "address": "南谯北路860号琅琊街道乐彩城3层"
  },
  "228": {
    "id": 228,
    "url": "https://map.bemanicn.com/shop/228",
    "name": "风云再起（苏宁广场店）",
    "province": "安徽省",
    "location": "滁州市琅琊区",
    "address": "天长西路54号苏宁广场负一层"
  },
  "450": {
    "id": 450,
    "url": "https://map.bemanicn.com/shop/450",
    "name": "大玩家滁州万达店",
    "province": "安徽省",
    "location": "滁州市南谯区",
    "address": "南谯中路与湖心路交叉口东北侧滁州万达广场二楼"
  },
  "767": {
    "id": 767,
    "url": "https://map.bemanicn.com/shop/767",
    "name": "星世纪滁州吾悦广场店",
    "province": "安徽省",
    "location": "滁州市南谯区",
    "address": "南谯南路与敬梓路交叉口往东240米路南"
  },
  "854": {
    "id": 854,
    "url": "https://map.bemanicn.com/shop/854",
    "name": "风云再起宿州苏宁广场店",
    "province": "安徽省",
    "location": "宿州市埇桥区",
    "address": "汴河中路苏宁广场3楼"
  },
  "293": {
    "id": 293,
    "url": "https://map.bemanicn.com/shop/293",
    "name": "福州东百中心乐炫风",
    "province": "福建省",
    "location": "福州市鼓楼区",
    "address": "东百中心c馆负一楼"
  },
  "353": {
    "id": 353,
    "url": "https://map.bemanicn.com/shop/353",
    "name": "福州金融街万达大玩家",
    "province": "福建省",
    "location": "福州市台江区",
    "address": "鳌峰路31号万达广场2层2F-A"
  },
  "355": {
    "id": 355,
    "url": "https://map.bemanicn.com/shop/355",
    "name": "福州宝龙乐园",
    "province": "福建省",
    "location": "福州市台江区",
    "address": "工业路193号宝龙城市广场B1层263/257"
  },
  "357": {
    "id": 357,
    "url": "https://map.bemanicn.com/shop/357",
    "name": "福州风云再起",
    "province": "福建省",
    "location": "福州市台江区",
    "address": "工业路233号苏宁广场C区3楼"
  },
  "975": {
    "id": 975,
    "url": "https://map.bemanicn.com/shop/975",
    "name": "咲窝游戏体验馆（已开业）",
    "province": "福建省",
    "location": "福州市台江区",
    "address": "上浦路与金山大桥交叉口南200米富力中心B2座613室"
  },
  "354": {
    "id": 354,
    "url": "https://map.bemanicn.com/shop/354",
    "name": "福州仓山万达Play1家庭娱乐中心",
    "province": "福建省",
    "location": "福州市仓山区",
    "address": "浦上大道276号仓山万达广场(一区)3号楼娱乐楼二层"
  },
  "358": {
    "id": 358,
    "url": "https://map.bemanicn.com/shop/358",
    "name": "福州爱玩嘉年华",
    "province": "福建省",
    "location": "福州市仓山区",
    "address": "金山街道浦上大道198号爱琴海购物公园3F层"
  },
  "264": {
    "id": 264,
    "url": "https://map.bemanicn.com/shop/264",
    "name": "福州星际传奇",
    "province": "福建省",
    "location": "福州市晋安区",
    "address": "化工路泰禾广场4F"
  },
  "631": {
    "id": 631,
    "url": "https://map.bemanicn.com/shop/631",
    "name": "福州世欧广场乐炫风",
    "province": "福建省",
    "location": "福州市晋安区",
    "address": "长河路88号世欧广场南区3层"
  },
  "690": {
    "id": 690,
    "url": "https://map.bemanicn.com/shop/690",
    "name": "福州永嘉乐炫风",
    "province": "福建省",
    "location": "福州市闽侯县",
    "address": "上街镇国宾大道268号永嘉天地16号楼第3层3016商铺"
  },
  "695": {
    "id": 695,
    "url": "https://map.bemanicn.com/shop/695",
    "name": "福州正荣欢聚乐园",
    "province": "福建省",
    "location": "福州市闽侯县",
    "address": "新保路18号正荣财富中心商场F2层-2023-1"
  },
  "356": {
    "id": 356,
    "url": "https://map.bemanicn.com/shop/356",
    "name": "福清万达大玩家",
    "province": "福建省",
    "location": "福州市福清市",
    "address": "清昌大道105号福清万达广场2F层"
  },
  "360": {
    "id": 360,
    "url": "https://map.bemanicn.com/shop/360",
    "name": "厦门虫虫乐园",
    "province": "福建省",
    "location": "厦门市思明区",
    "address": "厦禾路889号罗宾森购物广场3F层S3-12d"
  },
  "363": {
    "id": 363,
    "url": "https://map.bemanicn.com/shop/363",
    "name": "厦门宣窝（装修闭店中）",
    "province": "福建省",
    "location": "厦门市思明区",
    "address": "明发商业广场西区地下嘉禾路76-142(G160)"
  },
  "364": {
    "id": 364,
    "url": "https://map.bemanicn.com/shop/364",
    "name": "厦门思明区超级星座",
    "province": "福建省",
    "location": "厦门市思明区",
    "address": "嘉禾路明发商业广场摩天轮下负一层76-431"
  },
  "361": {
    "id": 361,
    "url": "https://map.bemanicn.com/shop/361",
    "name": "厦门湖里大玩家",
    "province": "福建省",
    "location": "厦门市湖里区",
    "address": "仙岳路4666号万达广场2-3楼"
  },
  "362": {
    "id": 362,
    "url": "https://map.bemanicn.com/shop/362",
    "name": "厦门集美大玩家",
    "province": "福建省",
    "location": "厦门市集美区",
    "address": "银江路137号万达广场万达百货2层"
  },
  "368": {
    "id": 368,
    "url": "https://map.bemanicn.com/shop/368",
    "name": "莆田大玩家",
    "province": "福建省",
    "location": "莆田市城厢区",
    "address": "荔华东大道8号万达广场万达百货4层"
  },
  "365": {
    "id": 365,
    "url": "https://map.bemanicn.com/shop/365",
    "name": "三明市梅列区进珠游乐城",
    "province": "福建省",
    "location": "三明市梅列区",
    "address": "和仁新村44幢地下室(梅园餐馆对面、和仁路旁)"
  },
  "948": {
    "id": 948,
    "url": "https://map.bemanicn.com/shop/948",
    "name": "福建三明大玩家游乐城",
    "province": "福建省",
    "location": "三明市三元区",
    "address": "新市北路与东乾二路交汇处"
  },
  "369": {
    "id": 369,
    "url": "https://map.bemanicn.com/shop/369",
    "name": "泉州浦西大玩家",
    "province": "福建省",
    "location": "泉州市丰泽区",
    "address": "宝洲路679号万达广场2楼大玩家"
  },
  "439": {
    "id": 439,
    "url": "https://map.bemanicn.com/shop/439",
    "name": "趴趴星球",
    "province": "福建省",
    "location": "泉州市丰泽区",
    "address": "安吉路中骏世界城3层N347号"
  },
  "1021": {
    "id": 1021,
    "url": "https://map.bemanicn.com/shop/1021",
    "name": "play1家庭娱乐中心(浦西万达店)",
    "province": "福建省",
    "location": "泉州市丰泽区",
    "address": "宝洲街483号浦西万达广场2层"
  },
  "562": {
    "id": 562,
    "url": "https://map.bemanicn.com/shop/562",
    "name": "石狮纷享星球电玩动漫体验",
    "province": "福建省",
    "location": "泉州市石狮市",
    "address": "宝岛中路泰禾广场二楼L211-213"
  },
  "370": {
    "id": 370,
    "url": "https://map.bemanicn.com/shop/370",
    "name": "石狮Play1家庭娱乐中心",
    "province": "福建省",
    "location": "泉州市石狮市",
    "address": "世贸广场3楼(万达影城正上方)"
  },
  "371": {
    "id": 371,
    "url": "https://map.bemanicn.com/shop/371",
    "name": "石狮世佳乐园",
    "province": "福建省",
    "location": "泉州市石狮市",
    "address": "德辉广场7楼7-001号"
  },
  "598": {
    "id": 598,
    "url": "https://map.bemanicn.com/shop/598",
    "name": "极客森超乐场",
    "province": "福建省",
    "location": "漳州市芗城区",
    "address": "漳州市高级技工学校对面"
  },
  "366": {
    "id": 366,
    "url": "https://map.bemanicn.com/shop/366",
    "name": "漳州碧湖万达大玩家",
    "province": "福建省",
    "location": "漳州市龙文区",
    "address": "建元东路2号万达广场2层"
  },
  "751": {
    "id": 751,
    "url": "https://map.bemanicn.com/shop/751",
    "name": "漳州宝龙蓝鲸乐园",
    "province": "福建省",
    "location": "漳州市龙文区",
    "address": "梧桥中路宝龙广场三楼"
  },
  "367": {
    "id": 367,
    "url": "https://map.bemanicn.com/shop/367",
    "name": "台商角美大玩家",
    "province": "福建省",
    "location": "漳州市龙海市",
    "address": "台商投资区角江路角美万达广场3楼大玩家超乐场"
  },
  "955": {
    "id": 955,
    "url": "https://map.bemanicn.com/shop/955",
    "name": "极乐动漫城",
    "province": "福建省",
    "location": "南平市延平区",
    "address": "滨江中路6号延寿酒楼负一楼"
  },
  "961": {
    "id": 961,
    "url": "https://map.bemanicn.com/shop/961",
    "name": "龙岩琉璃屋",
    "province": "福建省",
    "location": "龙岩市新罗区",
    "address": "龙岩大道338号附近SOHO国际A1座 16楼1601"
  },
  "908": {
    "id": 908,
    "url": "https://map.bemanicn.com/shop/908",
    "name": "星际传奇（铜锣湾店）",
    "province": "江西省",
    "location": "南昌市市辖区",
    "address": "庐山南大道369号"
  },
  "671": {
    "id": 671,
    "url": "https://map.bemanicn.com/shop/671",
    "name": "大玩家(南昌红谷滩万达店)1店",
    "province": "江西省",
    "location": "南昌市市辖区",
    "address": "会展路999号万达广场2层"
  },
  "445": {
    "id": 445,
    "url": "https://map.bemanicn.com/shop/445",
    "name": "大玩家(南昌融创茂店)2店",
    "province": "江西省",
    "location": "南昌市市辖区",
    "address": "南龙潘街666号万达茂二号门二楼大玩家超乐场"
  },
  "125": {
    "id": 125,
    "url": "https://map.bemanicn.com/shop/125",
    "name": "风云再起(南昌中山路店)",
    "province": "江西省",
    "location": "南昌市东湖区",
    "address": "中山路65号强威大厦3层"
  },
  "778": {
    "id": 778,
    "url": "https://map.bemanicn.com/shop/778",
    "name": "快乐玩家九州天虹店",
    "province": "江西省",
    "location": "南昌市西湖区",
    "address": "朝阳洲天虹购物中心3楼"
  },
  "741": {
    "id": 741,
    "url": "https://map.bemanicn.com/shop/741",
    "name": "阿尔法游艺中心",
    "province": "江西省",
    "location": "南昌市西湖区",
    "address": "中山路282号(西湖商厦负一层)(中山路天虹旁边)"
  },
  "289": {
    "id": 289,
    "url": "https://map.bemanicn.com/shop/289",
    "name": "真快活(南昌王府井店)",
    "province": "江西省",
    "location": "南昌市青云谱区",
    "address": "洪城路188号王府井购物中心6楼"
  },
  "1028": {
    "id": 1028,
    "url": "https://map.bemanicn.com/shop/1028",
    "name": "幸运星南昌万象汇店",
    "province": "江西省",
    "location": "南昌市青山湖区",
    "address": "高新大道与北京东路交叉路口万象汇商业中心2F和3F"
  },
  "414": {
    "id": 414,
    "url": "https://map.bemanicn.com/shop/414",
    "name": "城市英雄(南昌店)",
    "province": "江西省",
    "location": "南昌市新建区",
    "address": "长堎大道666号吾悦广场二楼2027"
  },
  "657": {
    "id": 657,
    "url": "https://map.bemanicn.com/shop/657",
    "name": "雷天城市英雄象湖店",
    "province": "江西省",
    "location": "南昌市南昌县",
    "address": "金沙大道新力都荟C区2楼"
  },
  "127": {
    "id": 127,
    "url": "https://map.bemanicn.com/shop/127",
    "name": "景德镇金鼎乐酷电玩",
    "province": "江西省",
    "location": "景德镇市珠山区",
    "address": "广场南路160号金鼎商业广场"
  },
  "516": {
    "id": 516,
    "url": "https://map.bemanicn.com/shop/516",
    "name": "美酷拉游乐城步行街店",
    "province": "江西省",
    "location": "萍乡市市辖区",
    "address": "文化路步行街中段"
  },
  "944": {
    "id": 944,
    "url": "https://map.bemanicn.com/shop/944",
    "name": "柚子电玩城",
    "province": "江西省",
    "location": "九江市庐山市",
    "address": "江西省九江市庐山市庐阳国际四楼"
  },
  "274": {
    "id": 274,
    "url": "https://map.bemanicn.com/shop/274",
    "name": "城市英雄赣州店",
    "province": "江西省",
    "location": "赣州市章贡区",
    "address": "步步高新天地4楼4001号"
  },
  "904": {
    "id": 904,
    "url": "https://map.bemanicn.com/shop/904",
    "name": "大玩家超乐场（宜春万达店）",
    "province": "江西省",
    "location": "宜春市袁州区",
    "address": "宜阳东大道6号万达广场三楼"
  },
  "543": {
    "id": 543,
    "url": "https://map.bemanicn.com/shop/543",
    "name": "play1家庭娱乐中心（高新万达店）",
    "province": "山东省",
    "location": "济南市历下区",
    "address": "颖秀路济南高新万达广场3层"
  },
  "584": {
    "id": 584,
    "url": "https://map.bemanicn.com/shop/584",
    "name": "威龙传奇",
    "province": "山东省",
    "location": "济南市历下区",
    "address": "泉城路26号世茂国际广场东座3层"
  },
  "766": {
    "id": 766,
    "url": "https://map.bemanicn.com/shop/766",
    "name": "潮玩社",
    "province": "山东省",
    "location": "济南市历下区",
    "address": "奥体西路3699号（奥体西路与礼耕路交叉口）龙湖济南奥体天街A馆（西塔）5楼（CGV影院旁）"
  },
  "539": {
    "id": 539,
    "url": "https://map.bemanicn.com/shop/539",
    "name": "汤姆熊欢乐世界环宇城店",
    "province": "山东省",
    "location": "济南市市中区",
    "address": "二环南路环宇城/中海广场3层"
  },
  "231": {
    "id": 231,
    "url": "https://map.bemanicn.com/shop/231",
    "name": "汤姆熊和谐广场店",
    "province": "山东省",
    "location": "济南市槐荫区",
    "address": "经十路22799号和谐广场3层322室（与纬十二路交叉），和谐广场南门侧3楼"
  },
  "531": {
    "id": 531,
    "url": "https://map.bemanicn.com/shop/531",
    "name": "汤姆熊缤纷五洲店",
    "province": "山东省",
    "location": "济南市天桥区",
    "address": "济泺路96-1号缤纷五洲F3层"
  },
  "1005": {
    "id": 1005,
    "url": "https://map.bemanicn.com/shop/1005",
    "name": "小勇士家庭娱乐中心缤纷五洲店",
    "province": "山东省",
    "location": "济南市天桥区",
    "address": "济泺路96-1号缤纷五洲商业广场F1"
  },
  "1048": {
    "id": 1048,
    "url": "https://map.bemanicn.com/shop/1048",
    "name": "星际传奇（济南融创茂店）",
    "province": "山东省",
    "location": "济南市历城区",
    "address": "凤鸣路4646号融创文旅城融创茂L1层L1-B号商铺（星际传奇）"
  },
  "540": {
    "id": 540,
    "url": "https://map.bemanicn.com/shop/540",
    "name": "哈皮熊欢乐世界",
    "province": "山东省",
    "location": "济南市历城区",
    "address": "北园大街9号荣盛时代国际广场3层"
  },
  "532": {
    "id": 532,
    "url": "https://map.bemanicn.com/shop/532",
    "name": "城市猎人",
    "province": "山东省",
    "location": "济南市章丘区",
    "address": "明水大街维华商业广场3楼西侧"
  },
  "238": {
    "id": 238,
    "url": "https://map.bemanicn.com/shop/238",
    "name": "青岛万象城世嘉JOYPOLIS主题乐园",
    "province": "山东省",
    "location": "青岛市市南区",
    "address": "山东路6号甲青岛万象城4-5层（5号门进入直行30米右手边直梯即到，4层5层均可进入，总服务台在5层入口，CGV影院旁）"
  },
  "703": {
    "id": 703,
    "url": "https://map.bemanicn.com/shop/703",
    "name": "爱尚玩 Love play",
    "province": "山东省",
    "location": "青岛市市北区",
    "address": "哈尔滨路88号保利广场五层"
  },
  "460": {
    "id": 460,
    "url": "https://map.bemanicn.com/shop/460",
    "name": "大玩家凯德mall店",
    "province": "山东省",
    "location": "青岛市市北区",
    "address": "黑龙江南路16-18号 凯德mall 内四楼东南角"
  },
  "233": {
    "id": 233,
    "url": "https://map.bemanicn.com/shop/233",
    "name": "万达大玩家CBD店",
    "province": "山东省",
    "location": "青岛市市北区",
    "address": "延吉路11号万达广场内3楼"
  },
  "241": {
    "id": 241,
    "url": "https://map.bemanicn.com/shop/241",
    "name": "风云再起金狮广场店",
    "province": "山东省",
    "location": "青岛市崂山区",
    "address": "香港东路195号乙金狮广场L2-01B"
  },
  "236": {
    "id": 236,
    "url": "https://map.bemanicn.com/shop/236",
    "name": "万达大玩家李沧店",
    "province": "山东省",
    "location": "青岛市李沧区",
    "address": "巨峰路178号万达广场1-2层（也可能是负一，那个破商场 一楼和负一都能到地面……）"
  },
  "240": {
    "id": 240,
    "url": "https://map.bemanicn.com/shop/240",
    "name": "神采飞扬李村乐客城店",
    "province": "山东省",
    "location": "青岛市李沧区",
    "address": "夏庄路1号伟东·乐客城购物中心3层"
  },
  "808": {
    "id": 808,
    "url": "https://map.bemanicn.com/shop/808",
    "name": "大玩家青岛城阳万达店",
    "province": "山东省",
    "location": "青岛市城阳区",
    "address": "正阳中路117号青特万达广场2层"
  },
  "697": {
    "id": 697,
    "url": "https://map.bemanicn.com/shop/697",
    "name": "*芯窝*",
    "province": "山东省",
    "location": "青岛市城阳区",
    "address": "白沙湾路与云河路交汇处"
  },
  "1027": {
    "id": 1027,
    "url": "https://map.bemanicn.com/shop/1027",
    "name": "偶予电玩即墨宝龙广场店",
    "province": "山东省",
    "location": "青岛市即墨区",
    "address": "振华街88号"
  },
  "954": {
    "id": 954,
    "url": "https://map.bemanicn.com/shop/954",
    "name": "宾果无限即墨宝龙广场店",
    "province": "山东省",
    "location": "青岛市即墨区",
    "address": "振华街88号(近新兴路)"
  },
  "242": {
    "id": 242,
    "url": "https://map.bemanicn.com/shop/242",
    "name": "茂业天地哈雷慧6号星球",
    "province": "山东省",
    "location": "淄博市张店区",
    "address": "公园街道柳泉路152号茂业天地3楼西北角"
  },
  "538": {
    "id": 538,
    "url": "https://map.bemanicn.com/shop/538",
    "name": "自由空间电玩城",
    "province": "山东省",
    "location": "枣庄市市中区",
    "address": "建华路银座五楼乐达影城"
  },
  "802": {
    "id": 802,
    "url": "https://map.bemanicn.com/shop/802",
    "name": "益家攻略东营王府井店",
    "province": "山东省",
    "location": "东营市东营区",
    "address": "黄河路与天目山路交汇处西北角东营王府井店4楼益家攻略"
  },
  "936": {
    "id": 936,
    "url": "https://map.bemanicn.com/shop/936",
    "name": "东营区东城万达广场大玩家",
    "province": "山东省",
    "location": "东营市东营区",
    "address": "万达广场（东城店）3F大玩家"
  },
  "968": {
    "id": 968,
    "url": "https://map.bemanicn.com/shop/968",
    "name": "快乐联盟悦动先锋",
    "province": "山东省",
    "location": "烟台市芝罘区",
    "address": "北马路150号大悦城4层（幸福蓝海国际影城附近）"
  },
  "246": {
    "id": 246,
    "url": "https://map.bemanicn.com/shop/246",
    "name": "大玩家芝罘区万达广场店",
    "province": "山东省",
    "location": "烟台市芝罘区",
    "address": "西关南街6号万达广场2F层"
  },
  "247": {
    "id": 247,
    "url": "https://map.bemanicn.com/shop/247",
    "name": "大玩家开发区万达广场店",
    "province": "山东省",
    "location": "烟台市福山区",
    "address": "衡山路17-1号万达广场3层"
  },
  "840": {
    "id": 840,
    "url": "https://map.bemanicn.com/shop/840",
    "name": "乖乖鼠儿童乐园",
    "province": "山东省",
    "location": "烟台市蓬莱市",
    "address": "北关路277号宝龙广场2F"
  },
  "529": {
    "id": 529,
    "url": "https://map.bemanicn.com/shop/529",
    "name": "青春飞扬动漫城",
    "province": "山东省",
    "location": "潍坊市奎文区",
    "address": "谷德广场负一楼,美食城南侧"
  },
  "811": {
    "id": 811,
    "url": "https://map.bemanicn.com/shop/811",
    "name": "威龙传奇潍坊奎文店",
    "province": "山东省",
    "location": "潍坊市奎文区",
    "address": "东风东街360号泰华新天地1F层"
  },
  "812": {
    "id": 812,
    "url": "https://map.bemanicn.com/shop/812",
    "name": "娱人港湾（金查理小镇店）",
    "province": "山东省",
    "location": "潍坊市诸城市",
    "address": "旅游路与常山大道交叉口金查理小镇3-1"
  },
  "831": {
    "id": 831,
    "url": "https://map.bemanicn.com/shop/831",
    "name": "大顽家",
    "province": "山东省",
    "location": "潍坊市诸城市",
    "address": "繁荣路124号"
  },
  "535": {
    "id": 535,
    "url": "https://map.bemanicn.com/shop/535",
    "name": "大玩家（WF02万达店）",
    "province": "山东省",
    "location": "潍坊市寿光市",
    "address": "圣城街道学院路1111号"
  },
  "537": {
    "id": 537,
    "url": "https://map.bemanicn.com/shop/537",
    "name": "大玩家JN11太白路万达店",
    "province": "山东省",
    "location": "济宁市任城区",
    "address": "太白东路55号万达广场2F层"
  },
  "1032": {
    "id": 1032,
    "url": "https://map.bemanicn.com/shop/1032",
    "name": "慢车道游乐场",
    "province": "山东省",
    "location": "泰安市泰山区",
    "address": "东岳大街和天烛峰路口东北角"
  },
  "616": {
    "id": 616,
    "url": "https://map.bemanicn.com/shop/616",
    "name": "一起玩家年华泰安爱琴海店",
    "province": "山东省",
    "location": "泰安市岱岳区",
    "address": "天平湖路与梅山西路交汇处"
  },
  "647": {
    "id": 647,
    "url": "https://map.bemanicn.com/shop/647",
    "name": "潮玩俱乐部CLUB",
    "province": "山东省",
    "location": "威海市环翠区",
    "address": "新威路17-5号 威高广场 四楼 电影院旁"
  },
  "1011": {
    "id": 1011,
    "url": "https://map.bemanicn.com/shop/1011",
    "name": "大风车威海嘉禾天地店",
    "province": "山东省",
    "location": "威海市环翠区",
    "address": "新威路17-4号乐天百货F3"
  },
  "526": {
    "id": 526,
    "url": "https://map.bemanicn.com/shop/526",
    "name": "菲利斯星球乐园临沂首联旺角店",
    "province": "山东省",
    "location": "临沂市兰山区",
    "address": "通达路与陶然路交汇处东北角首联旺角购物广场一楼"
  },
  "590": {
    "id": 590,
    "url": "https://map.bemanicn.com/shop/590",
    "name": "临沂壹家庭游乐园泰盛广场店",
    "province": "山东省",
    "location": "临沂市兰山区",
    "address": "解放路88号泰盛广场三层(通达路与解放路交汇处东北角)"
  },
  "541": {
    "id": 541,
    "url": "https://map.bemanicn.com/shop/541",
    "name": "酷动乐园",
    "province": "山东省",
    "location": "德州市德城区",
    "address": "东风东路澳德乐四楼(1899街区北侧)"
  },
  "874": {
    "id": 874,
    "url": "https://map.bemanicn.com/shop/874",
    "name": "威龙嘉年华",
    "province": "山东省",
    "location": "菏泽市牡丹区",
    "address": "牡丹街道人民北路以东长城路以北鲁商·凤凰城"
  },
  "982": {
    "id": 982,
    "url": "https://map.bemanicn.com/shop/982",
    "name": "环亚大完家",
    "province": "山东省",
    "location": "菏泽市单县",
    "address": "单县向阳西路与湖西路交汇处环亚商城4楼"
  },
  "112": {
    "id": 112,
    "url": "https://map.bemanicn.com/shop/112",
    "name": "风云再起大上海城店",
    "province": "河南省",
    "location": "郑州市市辖区",
    "address": "大上海城5F"
  },
  "114": {
    "id": 114,
    "url": "https://map.bemanicn.com/shop/114",
    "name": "郑州大玩家（中原店）",
    "province": "河南省",
    "location": "郑州市市辖区",
    "address": "郑州大玩家（中原店）"
  },
  "115": {
    "id": 115,
    "url": "https://map.bemanicn.com/shop/115",
    "name": "郑州大玩家（二七店）",
    "province": "河南省",
    "location": "郑州市市辖区",
    "address": "郑州大玩家（二七店）"
  },
  "113": {
    "id": 113,
    "url": "https://map.bemanicn.com/shop/113",
    "name": "风云再起二七广场店",
    "province": "河南省",
    "location": "郑州市二七区",
    "address": "德化步行街-1F，下沉广场西侧"
  },
  "116": {
    "id": 116,
    "url": "https://map.bemanicn.com/shop/116",
    "name": "海港公园动漫游戏体验中心",
    "province": "河南省",
    "location": "郑州市二七区",
    "address": "郑州二七广场德化商业街"
  },
  "487": {
    "id": 487,
    "url": "https://map.bemanicn.com/shop/487",
    "name": "城市英雄（郑州）",
    "province": "河南省",
    "location": "郑州市二七区",
    "address": "无限城购物中心六楼"
  },
  "1019": {
    "id": 1019,
    "url": "https://map.bemanicn.com/shop/1019",
    "name": "玩美世界e动城 郑州新田360太康路店",
    "province": "河南省",
    "location": "郑州市管城回族区",
    "address": "西太康路大卫城旁边66号附1号"
  },
  "280": {
    "id": 280,
    "url": "https://map.bemanicn.com/shop/280",
    "name": "风云再起郑州大卫城店",
    "province": "河南省",
    "location": "郑州市金水区",
    "address": "西太康路与二七路交汇处西北角大卫城6楼风云再起"
  },
  "970": {
    "id": 970,
    "url": "https://map.bemanicn.com/shop/970",
    "name": "玩美世界e动城郑州店",
    "province": "河南省",
    "location": "郑州市金水区",
    "address": "金水东路80号新田360广场A馆4楼"
  },
  "473": {
    "id": 473,
    "url": "https://map.bemanicn.com/shop/473",
    "name": "风云再起丹尼斯七天地店",
    "province": "河南省",
    "location": "郑州市金水区",
    "address": "众意路丹尼斯7天地B1"
  },
  "548": {
    "id": 548,
    "url": "https://map.bemanicn.com/shop/548",
    "name": "e舞成名游戏厅",
    "province": "河南省",
    "location": "郑州市新密市",
    "address": "新密市农业路420 金霖商厦7F"
  },
  "119": {
    "id": 119,
    "url": "https://map.bemanicn.com/shop/119",
    "name": "洛阳万达大玩家",
    "province": "河南省",
    "location": "洛阳市涧西区",
    "address": "河南省洛阳市涧西区辽宁路168号四楼"
  },
  "769": {
    "id": 769,
    "url": "https://map.bemanicn.com/shop/769",
    "name": "汤姆熊欢乐世界（洛阳正大广场店）",
    "province": "河南省",
    "location": "洛阳市洛龙区",
    "address": "开元大道225号正大国际广场四楼"
  },
  "875": {
    "id": 875,
    "url": "https://map.bemanicn.com/shop/875",
    "name": "嗨Party运动娱乐中心（洛阳泉舜店）",
    "province": "河南省",
    "location": "洛阳市洛龙区",
    "address": "牡丹大道166号泉舜财富购物中心4楼南侧"
  },
  "1009": {
    "id": 1009,
    "url": "https://map.bemanicn.com/shop/1009",
    "name": "头号玩家洛阳泉舜店",
    "province": "河南省",
    "location": "洛阳市洛龙区",
    "address": "牡丹大道166号泉舜购物中心4楼东南侧"
  },
  "993": {
    "id": 993,
    "url": "https://map.bemanicn.com/shop/993",
    "name": "io电动工坊",
    "province": "河南省",
    "location": "洛阳市洛宁县",
    "address": "新都汇3楼"
  },
  "906": {
    "id": 906,
    "url": "https://map.bemanicn.com/shop/906",
    "name": "万达大玩家（安阳）",
    "province": "河南省",
    "location": "安阳市文峰区",
    "address": "万达广场"
  },
  "744": {
    "id": 744,
    "url": "https://map.bemanicn.com/shop/744",
    "name": "裕隆动漫城(鹤壁)",
    "province": "河南省",
    "location": "鹤壁市淇滨区",
    "address": "兴鹤大街与鹤煤大道交汇处裕隆爱之城F6层"
  },
  "118": {
    "id": 118,
    "url": "https://map.bemanicn.com/shop/118",
    "name": "世纪华联弘哲动漫城",
    "province": "河南省",
    "location": "新乡市市辖区",
    "address": "河南省新乡市五一路与新中大道交叉口向南500米易美家居负一楼世纪华联超市"
  },
  "117": {
    "id": 117,
    "url": "https://map.bemanicn.com/shop/117",
    "name": "play1家庭娱乐中心（新乡）",
    "province": "河南省",
    "location": "新乡市牧野区",
    "address": "新乡市牧野区宏力大道与学院路交叉路口新乡牧野万达广场2~3楼"
  },
  "308": {
    "id": 308,
    "url": "https://map.bemanicn.com/shop/308",
    "name": "胖东来动漫乐园",
    "province": "河南省",
    "location": "许昌市市辖区",
    "address": "七一路中段胖东来时代广场5层"
  },
  "1052": {
    "id": 1052,
    "url": "https://map.bemanicn.com/shop/1052",
    "name": "玩美世界e动城",
    "province": "河南省",
    "location": "南阳市宛城区",
    "address": "人民路与建设路交汇处"
  },
  "636": {
    "id": 636,
    "url": "https://map.bemanicn.com/shop/636",
    "name": "乐趣游戏空间",
    "province": "河南省",
    "location": "南阳市方城县",
    "address": "河南省南阳市方城县百信广场5楼"
  },
  "943": {
    "id": 943,
    "url": "https://map.bemanicn.com/shop/943",
    "name": "ACGAMERS（阿西电玩）",
    "province": "河南省",
    "location": "商丘市梁园区",
    "address": "八一东路 英康一街中段 ACGAMERS"
  },
  "642": {
    "id": 642,
    "url": "https://map.bemanicn.com/shop/642",
    "name": "海星动漫城",
    "province": "河南省",
    "location": "商丘市虞城县",
    "address": "人民路虞城中心2栋01号 大润发百货商场4楼"
  },
  "965": {
    "id": 965,
    "url": "https://map.bemanicn.com/shop/965",
    "name": "热带风暴",
    "province": "河南省",
    "location": "周口市川汇区",
    "address": "七一路中段71号"
  },
  "1058": {
    "id": 1058,
    "url": "https://map.bemanicn.com/shop/1058",
    "name": "动漫城",
    "province": "河南省",
    "location": "周口市郸城县",
    "address": "广场南路奥斯卡影城公园店一楼动漫城"
  },
  "941": {
    "id": 941,
    "url": "https://map.bemanicn.com/shop/941",
    "name": "玩咖天地奇美乐园",
    "province": "河南省",
    "location": "驻马店市新蔡县",
    "address": "安居苑小区南100米(干宝大道北) 西亚利宝商城五楼"
  },
  "832": {
    "id": 832,
    "url": "https://map.bemanicn.com/shop/832",
    "name": "爱玩星球（驻马店）",
    "province": "河南省",
    "location": "驻马店市河南驻马店经济开发区",
    "address": "乐山路1096号爱克CBD玖隆茂购物中心三楼爱玩星球"
  },
  "158": {
    "id": 158,
    "url": "https://map.bemanicn.com/shop/158",
    "name": "真快活国广店",
    "province": "湖北省",
    "location": "武汉市江汉区",
    "address": "武汉国际广场7F"
  },
  "159": {
    "id": 159,
    "url": "https://map.bemanicn.com/shop/159",
    "name": "真快活M+店",
    "province": "湖北省",
    "location": "武汉市江汉区",
    "address": "M＋购物中心5F"
  },
  "165": {
    "id": 165,
    "url": "https://map.bemanicn.com/shop/165",
    "name": "风云再起江汉路店",
    "province": "湖北省",
    "location": "武汉市江汉区",
    "address": "地铁二号线江汉路站JH2-009(江汉路地铁站C、D出口直达)"
  },
  "444": {
    "id": 444,
    "url": "https://map.bemanicn.com/shop/444",
    "name": "futa-maimai",
    "province": "湖北省",
    "location": "武汉市江汉区",
    "address": "江汉北路77号(民航大酒店旁)江都仕嘉A座1103"
  },
  "718": {
    "id": 718,
    "url": "https://map.bemanicn.com/shop/718",
    "name": "Playone菱角湖万达店",
    "province": "湖北省",
    "location": "武汉市江汉区",
    "address": "唐家墩路9号菱角湖万达广场2层playone"
  },
  "501": {
    "id": 501,
    "url": "https://map.bemanicn.com/shop/501",
    "name": "小酋长汉口店",
    "province": "湖北省",
    "location": "武汉市江汉区",
    "address": "中山大道818号Happy站台美食购物广场"
  },
  "958": {
    "id": 958,
    "url": "https://map.bemanicn.com/shop/958",
    "name": "星际传奇恒隆店",
    "province": "湖北省",
    "location": "武汉市硚口区",
    "address": "京汉大道668号恒隆广场4楼"
  },
  "733": {
    "id": 733,
    "url": "https://map.bemanicn.com/shop/733",
    "name": "城市英雄武汉k11店",
    "province": "湖北省",
    "location": "武汉市硚口区",
    "address": "解放大道632号新世界中心4层1室S418、S419号"
  },
  "288": {
    "id": 288,
    "url": "https://map.bemanicn.com/shop/288",
    "name": "真快活摩尔城店",
    "province": "湖北省",
    "location": "武汉市汉阳区",
    "address": "龙阳大道特6号摩尔城5层"
  },
  "987": {
    "id": 987,
    "url": "https://map.bemanicn.com/shop/987",
    "name": "汐窝",
    "province": "湖北省",
    "location": "武汉市汉阳区",
    "address": "阳光城檀悦29栋"
  },
  "761": {
    "id": 761,
    "url": "https://map.bemanicn.com/shop/761",
    "name": "漫无止境动漫城(汉阳店)",
    "province": "湖北省",
    "location": "武汉市汉阳区",
    "address": "龙阳大道58号汉阳人信汇商业广场第十幢C馆二层"
  },
  "524": {
    "id": 524,
    "url": "https://map.bemanicn.com/shop/524",
    "name": "大玩家（武汉万达店）",
    "province": "湖北省",
    "location": "武汉市武昌区",
    "address": "沙湖路万达广场4楼"
  },
  "294": {
    "id": 294,
    "url": "https://map.bemanicn.com/shop/294",
    "name": "奇奇乐园（奥山世纪城店）",
    "province": "湖北省",
    "location": "武汉市青山区",
    "address": "余家头村奥山世纪城3层"
  },
  "580": {
    "id": 580,
    "url": "https://map.bemanicn.com/shop/580",
    "name": "嗨森汇乐园(光谷店)",
    "province": "湖北省",
    "location": "武汉市洪山区",
    "address": "东湖高新技术开发区珞喻路726号世界城光谷步行街一期3楼"
  },
  "160": {
    "id": 160,
    "url": "https://map.bemanicn.com/shop/160",
    "name": "真快活街道口店",
    "province": "湖北省",
    "location": "武汉市洪山区",
    "address": "珞喻路35号银泰创意城7F层"
  },
  "162": {
    "id": 162,
    "url": "https://map.bemanicn.com/shop/162",
    "name": "真快活鲁巷店",
    "province": "湖北省",
    "location": "武汉市洪山区",
    "address": "珞喻路鲁巷广场购物中心负1F"
  },
  "164": {
    "id": 164,
    "url": "https://map.bemanicn.com/shop/164",
    "name": "欢乐无限",
    "province": "湖北省",
    "location": "武汉市洪山区",
    "address": "珞喻路鲁巷广场购物中心6F"
  },
  "166": {
    "id": 166,
    "url": "https://map.bemanicn.com/shop/166",
    "name": "欢乐王国",
    "province": "湖北省",
    "location": "武汉市洪山区",
    "address": "未来城购物公园2层"
  },
  "698": {
    "id": 698,
    "url": "https://map.bemanicn.com/shop/698",
    "name": "真快活光谷世界城广场店",
    "province": "湖北省",
    "location": "武汉市洪山区",
    "address": "珞喻路766号"
  },
  "167": {
    "id": 167,
    "url": "https://map.bemanicn.com/shop/167",
    "name": "大玩家超乐场（沌口店）",
    "province": "湖北省",
    "location": "武汉市蔡甸区",
    "address": "经济技术开发区东风大道111号万达广场经开店万达百货1层"
  },
  "942": {
    "id": 942,
    "url": "https://map.bemanicn.com/shop/942",
    "name": "寻游记嗨众",
    "province": "湖北省",
    "location": "武汉市江夏区",
    "address": "江夏区九全嘉国际广场3楼"
  },
  "303": {
    "id": 303,
    "url": "https://map.bemanicn.com/shop/303",
    "name": "真快活十堰茅箭人民商城店",
    "province": "湖北省",
    "location": "十堰市茅箭区",
    "address": "武商集团十堰人民商场8楼"
  },
  "665": {
    "id": 665,
    "url": "https://map.bemanicn.com/shop/665",
    "name": "Mollyfantasy莫莉幻想(十堰寿康华悦城店)",
    "province": "湖北省",
    "location": "十堰市茅箭区",
    "address": "朝阳中路29号寿康华悦城3楼"
  },
  "171": {
    "id": 171,
    "url": "https://map.bemanicn.com/shop/171",
    "name": "真快活十堰茅箭和信销品茂店",
    "province": "湖北省",
    "location": "十堰市茅箭区",
    "address": "邮电街和信销品茂负一楼真快活动漫体验中心"
  },
  "749": {
    "id": 749,
    "url": "https://map.bemanicn.com/shop/749",
    "name": "大玩家超乐场（十堰万达店）",
    "province": "湖北省",
    "location": "十堰市张湾区",
    "address": "北京北路99号娱乐楼二层大玩家超乐场"
  },
  "173": {
    "id": 173,
    "url": "https://map.bemanicn.com/shop/173",
    "name": "奇奇乐园CBD店",
    "province": "湖北省",
    "location": "宜昌市西陵区",
    "address": "夷陵大道58号CBD购物中心3楼"
  },
  "174": {
    "id": 174,
    "url": "https://map.bemanicn.com/shop/174",
    "name": "星际传奇水悦城店",
    "province": "湖北省",
    "location": "宜昌市西陵区",
    "address": "发展大道13号水悦城四楼"
  },
  "172": {
    "id": 172,
    "url": "https://map.bemanicn.com/shop/172",
    "name": "大玩家宜昌万达广场店",
    "province": "湖北省",
    "location": "宜昌市伍家岗区",
    "address": "沿江大道特168号万达广场1楼"
  },
  "745": {
    "id": 745,
    "url": "https://map.bemanicn.com/shop/745",
    "name": "奇奇乐园兴发广场店",
    "province": "湖北省",
    "location": "宜昌市伍家岗区",
    "address": "中南路35号兴发广场3楼奇奇乐园"
  },
  "1020": {
    "id": 1020,
    "url": "https://map.bemanicn.com/shop/1020",
    "name": "大玩家宜昌兴发广场店",
    "province": "湖北省",
    "location": "宜昌市夷陵区",
    "address": "发展大道与东方大道交汇处"
  },
  "168": {
    "id": 168,
    "url": "https://map.bemanicn.com/shop/168",
    "name": "大玩家万达广场襄阳店",
    "province": "湖北省",
    "location": "襄阳市市辖区",
    "address": "紫贞街道长虹北路9号"
  },
  "169": {
    "id": 169,
    "url": "https://map.bemanicn.com/shop/169",
    "name": "奇奇乐园万达广场襄阳店",
    "province": "湖北省",
    "location": "襄阳市市辖区",
    "address": "紫贞街道长虹北路9号"
  },
  "841": {
    "id": 841,
    "url": "https://map.bemanicn.com/shop/841",
    "name": "奇奇乐园襄阳樊城天元店",
    "province": "湖北省",
    "location": "襄阳市樊城区",
    "address": "人民路天元四季城2楼217号"
  },
  "842": {
    "id": 842,
    "url": "https://map.bemanicn.com/shop/842",
    "name": "都市玩家襄阳樊城店",
    "province": "湖北省",
    "location": "襄阳市樊城区",
    "address": "长虹路与人民路交汇处泛悦4层F4-018e号商铺"
  },
  "828": {
    "id": 828,
    "url": "https://map.bemanicn.com/shop/828",
    "name": "大富翁电玩城",
    "province": "湖北省",
    "location": "鄂州市鄂城区",
    "address": "滨湖北路8-2(新亚太国际广场)6楼"
  },
  "508": {
    "id": 508,
    "url": "https://map.bemanicn.com/shop/508",
    "name": "鄂州市九方动漫",
    "province": "湖北省",
    "location": "鄂州市鄂城区",
    "address": "鄂州市南浦路56号"
  },
  "579": {
    "id": 579,
    "url": "https://map.bemanicn.com/shop/579",
    "name": "真快活美乐园电玩城(银泰店)",
    "province": "湖北省",
    "location": "荆门市东宝区",
    "address": "象山一路6号银泰城七楼真快活美乐园"
  },
  "855": {
    "id": 855,
    "url": "https://map.bemanicn.com/shop/855",
    "name": "都市玩家荆门掇刀万达店",
    "province": "湖北省",
    "location": "荆门市掇刀区",
    "address": "虎牙关大道5号"
  },
  "727": {
    "id": 727,
    "url": "https://map.bemanicn.com/shop/727",
    "name": "城市英雄动漫游戏体验中心",
    "province": "湖北省",
    "location": "荆州市沙市区",
    "address": "北京中路人信汇负一楼"
  },
  "1012": {
    "id": 1012,
    "url": "https://map.bemanicn.com/shop/1012",
    "name": "大玩家超乐场(荆州万达店)",
    "province": "湖北省",
    "location": "荆州市荆州区",
    "address": "北京西路508号"
  },
  "952": {
    "id": 952,
    "url": "https://map.bemanicn.com/shop/952",
    "name": "大玩家(咸宁万达店)",
    "province": "湖北省",
    "location": "咸宁市咸安区",
    "address": "长安大道特188号万达广场1号门2楼大玩家"
  },
  "818": {
    "id": 818,
    "url": "https://map.bemanicn.com/shop/818",
    "name": "奇奇乐园随州曾都店",
    "province": "湖北省",
    "location": "随州市曾都区",
    "address": "青年路大润发三楼"
  },
  "847": {
    "id": 847,
    "url": "https://map.bemanicn.com/shop/847",
    "name": "奇奇乐园随州水西门店",
    "province": "湖北省",
    "location": "随州市曾都区",
    "address": "解放路195号水西门新世纪购物中心2店4楼"
  },
  "848": {
    "id": 848,
    "url": "https://map.bemanicn.com/shop/848",
    "name": "真快活仙桃武商店",
    "province": "湖北省",
    "location": "省直辖县级行政区划仙桃市",
    "address": "仙桃大道武商仙桃购物中心7楼"
  },
  "276": {
    "id": 276,
    "url": "https://map.bemanicn.com/shop/276",
    "name": "偶予电子游艺厅长沙店",
    "province": "湖南省",
    "location": "长沙市芙蓉区",
    "address": "万家丽路99号万家丽购物广场负一楼"
  },
  "321": {
    "id": 321,
    "url": "https://map.bemanicn.com/shop/321",
    "name": "城市英雄司门口店",
    "province": "湖南省",
    "location": "长沙市芙蓉区",
    "address": "解放西路147号"
  },
  "833": {
    "id": 833,
    "url": "https://map.bemanicn.com/shop/833",
    "name": "101电玩(万家丽店)",
    "province": "湖南省",
    "location": "长沙市芙蓉区",
    "address": "万家丽路99号万家丽国际购物广场8楼"
  },
  "609": {
    "id": 609,
    "url": "https://map.bemanicn.com/shop/609",
    "name": "新动力电玩城（万家丽广场店）",
    "province": "湖南省",
    "location": "长沙市芙蓉区",
    "address": "万家丽路99号万家丽购物广场负一楼新动力电玩城"
  },
  "635": {
    "id": 635,
    "url": "https://map.bemanicn.com/shop/635",
    "name": "嘻品堂电玩(万家丽店)",
    "province": "湖南省",
    "location": "长沙市芙蓉区",
    "address": "万家丽路99号万家丽国际购物广场5楼"
  },
  "630": {
    "id": 630,
    "url": "https://map.bemanicn.com/shop/630",
    "name": "乐酷星球南郊广场店",
    "province": "湖南省",
    "location": "长沙市天心区",
    "address": "赤岭街道书院南路73号南郊生活广场负二楼"
  },
  "176": {
    "id": 176,
    "url": "https://map.bemanicn.com/shop/176",
    "name": "城市英雄（长沙春天百货店）",
    "province": "湖南省",
    "location": "长沙市天心区",
    "address": "天心区长沙春天百货负一层"
  },
  "177": {
    "id": 177,
    "url": "https://map.bemanicn.com/shop/177",
    "name": "风云再起黄兴南路步行街店",
    "province": "湖南省",
    "location": "长沙市天心区",
    "address": "天心区黄兴南路步行街商业街E区4楼4001号"
  },
  "178": {
    "id": 178,
    "url": "https://map.bemanicn.com/shop/178",
    "name": "星际传奇ID购物中心店",
    "province": "湖南省",
    "location": "长沙市天心区",
    "address": "天心区坡子街216号悦方ID购物中心3楼"
  },
  "1046": {
    "id": 1046,
    "url": "https://map.bemanicn.com/shop/1046",
    "name": "反斗星长沙岳麓店",
    "province": "湖南省",
    "location": "长沙市岳麓区",
    "address": "先导路69号长沙龙湖洋湖天街A2馆3楼"
  },
  "314": {
    "id": 314,
    "url": "https://map.bemanicn.com/shop/314",
    "name": "城市英雄(长沙梅溪湖新天地店)",
    "province": "湖南省",
    "location": "长沙市岳麓区",
    "address": "枫林三路1099号步步高梅溪湖新天地B1层"
  },
  "573": {
    "id": 573,
    "url": "https://map.bemanicn.com/shop/573",
    "name": "城市英雄(奥克斯广场店)",
    "province": "湖南省",
    "location": "长沙市岳麓区",
    "address": "岳麓大道57号奥克斯广场3楼"
  },
  "593": {
    "id": 593,
    "url": "https://map.bemanicn.com/shop/593",
    "name": "快乐街区（步步高广场店）",
    "province": "湖南省",
    "location": "长沙市岳麓区",
    "address": "含浦大道与西二环交汇处"
  },
  "623": {
    "id": 623,
    "url": "https://map.bemanicn.com/shop/623",
    "name": "子洋联盟动漫体验中心(阳光100店)",
    "province": "湖南省",
    "location": "长沙市岳麓区",
    "address": "阳光100国际新城4-17A栋1层1027"
  },
  "1047": {
    "id": 1047,
    "url": "https://map.bemanicn.com/shop/1047",
    "name": "星城战记长沙开福万达店",
    "province": "湖南省",
    "location": "长沙市开福区",
    "address": "中山路589号万达广场娱乐楼3楼（Z-3F-A）"
  },
  "747": {
    "id": 747,
    "url": "https://map.bemanicn.com/shop/747",
    "name": "星世纪(五一广场万代店)",
    "province": "湖南省",
    "location": "长沙市开福区",
    "address": "黄兴中路87号万代大酒店一楼"
  },
  "693": {
    "id": 693,
    "url": "https://map.bemanicn.com/shop/693",
    "name": "头号玩家凯德店",
    "province": "湖南省",
    "location": "长沙市雨花区",
    "address": "砂子塘街道新建东路421号"
  },
  "313": {
    "id": 313,
    "url": "https://map.bemanicn.com/shop/313",
    "name": "城市英雄星沙吾悦店",
    "province": "湖南省",
    "location": "长沙市长沙县",
    "address": "东四路与特立东路交汇处吾悦广场3F城市英雄星沙吾悦店"
  },
  "878": {
    "id": 878,
    "url": "https://map.bemanicn.com/shop/878",
    "name": "量子时空舱游艺中心",
    "province": "湖南省",
    "location": "长沙市长沙县",
    "address": "万家丽北路和悦城蟠龙时代广场3F"
  },
  "953": {
    "id": 953,
    "url": "https://map.bemanicn.com/shop/953",
    "name": "星月方舟动漫湖南宁乡店",
    "province": "湖南省",
    "location": "长沙市宁乡市",
    "address": "春城北路与新康路交汇处翡翠湖国际广场"
  },
  "180": {
    "id": 180,
    "url": "https://map.bemanicn.com/shop/180",
    "name": "城市英雄YOUNG范Mall店",
    "province": "湖南省",
    "location": "株洲市市辖区",
    "address": "钟鼓岭路73号附近"
  },
  "181": {
    "id": 181,
    "url": "https://map.bemanicn.com/shop/181",
    "name": "哆莱咪电玩城千金文化广场店",
    "province": "湖南省",
    "location": "株洲市芦淞区",
    "address": "芦淞区市中心千金文化广场三楼"
  },
  "182": {
    "id": 182,
    "url": "https://map.bemanicn.com/shop/182",
    "name": "星世纪（七星店）",
    "province": "湖南省",
    "location": "株洲市芦淞区",
    "address": "芦淞区钟鼓岭路七星潮流购物公园负1楼"
  },
  "521": {
    "id": 521,
    "url": "https://map.bemanicn.com/shop/521",
    "name": "城市英雄湘潭车站路店",
    "province": "湖南省",
    "location": "湘潭市雨湖区",
    "address": "车站路2栋城市盒子1层"
  },
  "809": {
    "id": 809,
    "url": "https://map.bemanicn.com/shop/809",
    "name": "城市英雄湘潭中心店",
    "province": "湖南省",
    "location": "湘潭市岳塘区",
    "address": "岚园路4号"
  },
  "187": {
    "id": 187,
    "url": "https://map.bemanicn.com/shop/187",
    "name": "乐漫地动漫体验",
    "province": "湖南省",
    "location": "衡阳市雁峰区",
    "address": "衡阳市雁峰区环城南路168号(希朵曼对面)"
  },
  "307": {
    "id": 307,
    "url": "https://map.bemanicn.com/shop/307",
    "name": "城市英雄解放路店",
    "province": "湖南省",
    "location": "衡阳市石鼓区",
    "address": "解放路26号今日新城A栋"
  },
  "785": {
    "id": 785,
    "url": "https://map.bemanicn.com/shop/785",
    "name": "超级英雄衡阳蒸湘店",
    "province": "湖南省",
    "location": "衡阳市蒸湘区",
    "address": "船山大道41号金钟大雁城L1-02-05超级英雄"
  },
  "806": {
    "id": 806,
    "url": "https://map.bemanicn.com/shop/806",
    "name": "快乐街区弘阳广场店",
    "province": "湖南省",
    "location": "衡阳市蒸湘区",
    "address": "船山大道60号弘阳广场3楼"
  },
  "824": {
    "id": 824,
    "url": "https://map.bemanicn.com/shop/824",
    "name": "积木熊衡阳南岳店",
    "province": "湖南省",
    "location": "衡阳市南岳区",
    "address": "广济路2号岳秀花园3栋-01"
  },
  "895": {
    "id": 895,
    "url": "https://map.bemanicn.com/shop/895",
    "name": "金鹰电玩动漫游戏体验中心",
    "province": "湖南省",
    "location": "衡阳市衡阳县",
    "address": "西渡向阳南路"
  },
  "185": {
    "id": 185,
    "url": "https://map.bemanicn.com/shop/185",
    "name": "星世纪(友阿国际广场店)",
    "province": "湖南省",
    "location": "邵阳市双清区",
    "address": "邵阳市双清区友阿国际广场三楼中心处"
  },
  "188": {
    "id": 188,
    "url": "https://map.bemanicn.com/shop/188",
    "name": "城市英雄岳阳步步高店",
    "province": "湖南省",
    "location": "岳阳市市辖区",
    "address": "湖南省岳阳市岳阳楼区步行街步步高6楼"
  },
  "189": {
    "id": 189,
    "url": "https://map.bemanicn.com/shop/189",
    "name": "辛巴荟游艺城",
    "province": "湖南省",
    "location": "岳阳市岳阳楼区",
    "address": "湖南省岳阳市岳阳楼区泰和沃尔玛三楼"
  },
  "705": {
    "id": 705,
    "url": "https://map.bemanicn.com/shop/705",
    "name": "快乐一家Play1时尚嗨玩基地",
    "province": "湖南省",
    "location": "岳阳市岳阳楼区",
    "address": "北辅街44号"
  },
  "834": {
    "id": 834,
    "url": "https://map.bemanicn.com/shop/834",
    "name": "Play1家庭娱乐中心",
    "province": "湖南省",
    "location": "常德市武陵区",
    "address": "皂果路1099号常德万达广场3F层"
  },
  "426": {
    "id": 426,
    "url": "https://map.bemanicn.com/shop/426",
    "name": "登辉电玩俱乐部",
    "province": "湖南省",
    "location": "常德市武陵区",
    "address": "府坪街道高山街社区阳光鑫都潮流广场(和平街58号)"
  },
  "1013": {
    "id": 1013,
    "url": "https://map.bemanicn.com/shop/1013",
    "name": "AcePlay一同潮玩",
    "province": "湖南省",
    "location": "常德市武陵区",
    "address": "朗州路432号友阿国际广场6F"
  },
  "815": {
    "id": 815,
    "url": "https://map.bemanicn.com/shop/815",
    "name": "大玩家益阳赫山万达店",
    "province": "湖南省",
    "location": "益阳市赫山区",
    "address": "益阳大道与环山湖路交叉口万达广场二楼"
  },
  "285": {
    "id": 285,
    "url": "https://map.bemanicn.com/shop/285",
    "name": "城市英雄郴州店",
    "province": "湖南省",
    "location": "郴州市北湖区",
    "address": "人民中路8号城市英雄动漫游戏体验中心(人民中路店)"
  },
  "184": {
    "id": 184,
    "url": "https://map.bemanicn.com/shop/184",
    "name": "春园金鹰电玩城",
    "province": "湖南省",
    "location": "娄底市娄星区",
    "address": "娄底市娄星区春园商业步行街银街14栋2楼(时尚春天东北)"
  },
  "1018": {
    "id": 1018,
    "url": "https://map.bemanicn.com/shop/1018",
    "name": "万豪星世纪电玩城",
    "province": "湖南省",
    "location": "娄底市娄星区",
    "address": "氐星路1217号万豪城市广场三楼（扶梯右边）"
  },
  "1043": {
    "id": 1043,
    "url": "https://map.bemanicn.com/shop/1043",
    "name": "Super101潮范娱乐中心新化店",
    "province": "湖南省",
    "location": "娄底市新化县",
    "address": "娄底市新化县东方城市广场1085-1093号"
  },
  "284": {
    "id": 284,
    "url": "https://map.bemanicn.com/shop/284",
    "name": "疯狂牛仔城广州荔湾上下九店",
    "province": "广东省",
    "location": "广州市荔湾区",
    "address": "下九路90-92号东急新天地购物广场三楼疯狂牛仔城"
  },
  "41": {
    "id": 41,
    "url": "https://map.bemanicn.com/shop/41",
    "name": "星舰梦航荔胜广百广场店",
    "province": "广东省",
    "location": "广州市荔湾区",
    "address": "花地大道中68号荔胜广场3楼"
  },
  "614": {
    "id": 614,
    "url": "https://map.bemanicn.com/shop/614",
    "name": "晴空进击社",
    "province": "广东省",
    "location": "广州市荔湾区",
    "address": "西湾路150号悦汇城3楼c068商铺"
  },
  "43": {
    "id": 43,
    "url": "https://map.bemanicn.com/shop/43",
    "name": "大玩家超乐场海珠万达广场店",
    "province": "广东省",
    "location": "广州市海珠区",
    "address": "逸景路236号海珠万达广场三楼"
  },
  "620": {
    "id": 620,
    "url": "https://map.bemanicn.com/shop/620",
    "name": "赛乐联盟广州海珠合生广场店",
    "province": "广东省",
    "location": "广州市海珠区",
    "address": "叠景路168号合生广场L3-04/05"
  },
  "33": {
    "id": 33,
    "url": "https://map.bemanicn.com/shop/33",
    "name": "环游嘉年华天河店",
    "province": "广东省",
    "location": "广州市天河区",
    "address": "天河路208号天河城6楼"
  },
  "34": {
    "id": 34,
    "url": "https://map.bemanicn.com/shop/34",
    "name": "梦游仙境动漫主题乐园",
    "province": "广东省",
    "location": "广州市天河区",
    "address": "天河路598号岗顶百脑汇4楼"
  },
  "35": {
    "id": 35,
    "url": "https://map.bemanicn.com/shop/35",
    "name": "哇哇哇游乐城",
    "province": "广东省",
    "location": "广州市天河区",
    "address": "天河路228号正佳广场7楼"
  },
  "42": {
    "id": 42,
    "url": "https://map.bemanicn.com/shop/42",
    "name": "51区动漫娱乐白云店",
    "province": "广东省",
    "location": "广州市白云区",
    "address": "云霄路353号五号停机坪广场3楼"
  },
  "625": {
    "id": 625,
    "url": "https://map.bemanicn.com/shop/625",
    "name": "大玩家广州白云万达店",
    "province": "广东省",
    "location": "广州市白云区",
    "address": "云城东路501号万达广场F1层"
  },
  "983": {
    "id": 983,
    "url": "https://map.bemanicn.com/shop/983",
    "name": "下一站潮玩馆",
    "province": "广东省",
    "location": "广州市白云区",
    "address": "增槎路龙骏广场F座北门1楼"
  },
  "482": {
    "id": 482,
    "url": "https://map.bemanicn.com/shop/482",
    "name": "环游嘉年华金沙洲永旺店",
    "province": "广东省",
    "location": "广州市白云区",
    "address": "沙凤三路1号金沙永旺梦乐城四楼"
  },
  "282": {
    "id": 282,
    "url": "https://map.bemanicn.com/shop/282",
    "name": "环游嘉年华广州黄埔中新店",
    "province": "广东省",
    "location": "广州市黄埔区",
    "address": "中新知识城绿地缤纷城3楼s301铺"
  },
  "621": {
    "id": 621,
    "url": "https://map.bemanicn.com/shop/621",
    "name": "大玩家广州黄埔南岗万达店",
    "province": "广东省",
    "location": "广州市黄埔区",
    "address": "康富路16号万达广场二楼大玩家"
  },
  "669": {
    "id": 669,
    "url": "https://map.bemanicn.com/shop/669",
    "name": "Play1家庭娱乐中心萝岗万达店",
    "province": "广东省",
    "location": "广州市黄埔区",
    "address": "萝岗万达广场3楼"
  },
  "278": {
    "id": 278,
    "url": "https://map.bemanicn.com/shop/278",
    "name": "环游嘉年华番禺永旺店",
    "province": "广东省",
    "location": "广州市番禺区",
    "address": "亚运大道1号AEON MALL(番禺店)F3层3001铺环游嘉年华"
  },
  "36": {
    "id": 36,
    "url": "https://map.bemanicn.com/shop/36",
    "name": "欢乐世界GOGO新天地大学城店",
    "province": "广东省",
    "location": "广州市番禺区",
    "address": "大学城中二横路1号GOGO新天地一期3楼368铺"
  },
  "37": {
    "id": 37,
    "url": "https://map.bemanicn.com/shop/37",
    "name": "环游嘉年华奥园广场店",
    "province": "广东省",
    "location": "广州市番禺区",
    "address": "福德路281号奥园广场负一层华润万家入口处环游嘉年华"
  },
  "38": {
    "id": 38,
    "url": "https://map.bemanicn.com/shop/38",
    "name": "环游嘉年华易发店",
    "province": "广东省",
    "location": "广州市番禺区",
    "address": "光明北路易发商业中心5层(近新大新百货)"
  },
  "574": {
    "id": 574,
    "url": "https://map.bemanicn.com/shop/574",
    "name": "大玩家超乐场番禺万达广场店",
    "province": "广东省",
    "location": "广州市番禺区",
    "address": "兴南大道266号番禺万达广场娱乐楼2层"
  },
  "843": {
    "id": 843,
    "url": "https://map.bemanicn.com/shop/843",
    "name": "超级星座体验中心(大石店)",
    "province": "广东省",
    "location": "广州市番禺区",
    "address": "105新地娱乐美食广场二楼"
  },
  "721": {
    "id": 721,
    "url": "https://map.bemanicn.com/shop/721",
    "name": "环游嘉年华番禺天河城店",
    "province": "广东省",
    "location": "广州市番禺区",
    "address": "番禺区汉溪大道东366号天河城广场四楼环游嘉年"
  },
  "990": {
    "id": 990,
    "url": "https://map.bemanicn.com/shop/990",
    "name": "广州长隆欢乐世界",
    "province": "广东省",
    "location": "广州市番禺区",
    "address": "大石镇迎宾路长隆旅游度假村内"
  },
  "868": {
    "id": 868,
    "url": "https://map.bemanicn.com/shop/868",
    "name": "反斗乐园(花都融创茂店)",
    "province": "广东省",
    "location": "广州市花都区",
    "address": "凤凰北路融创茂2楼"
  },
  "577": {
    "id": 577,
    "url": "https://map.bemanicn.com/shop/577",
    "name": "战国游艺厅",
    "province": "广东省",
    "location": "广州市南沙区",
    "address": "东涌镇吉祥东路5号"
  },
  "578": {
    "id": 578,
    "url": "https://map.bemanicn.com/shop/578",
    "name": "大玩家超乐场南沙万达广场店",
    "province": "广东省",
    "location": "广州市南沙区",
    "address": "双山大道3号万达广场F3层"
  },
  "938": {
    "id": 938,
    "url": "https://map.bemanicn.com/shop/938",
    "name": "欢乐岛游戏城",
    "province": "广东省",
    "location": "广州市从化区",
    "address": "从城大道113-14号"
  },
  "290": {
    "id": 290,
    "url": "https://map.bemanicn.com/shop/290",
    "name": "赛乐联盟广州新塘合生店",
    "province": "广东省",
    "location": "广州市增城区",
    "address": "新塘镇创想路8号"
  },
  "1016": {
    "id": 1016,
    "url": "https://map.bemanicn.com/shop/1016",
    "name": "大玩家超乐场增城万达广场店",
    "province": "广东省",
    "location": "广州市增城区",
    "address": "增城大道69号万达广场F2层Z-2F-A"
  },
  "1017": {
    "id": 1017,
    "url": "https://map.bemanicn.com/shop/1017",
    "name": "朗玩(永旺梦乐城广州新塘购物中心店)",
    "province": "广东省",
    "location": "广州市增城区",
    "address": "香山大道2号永旺梦乐城广州新塘购物中心3楼"
  },
  "297": {
    "id": 297,
    "url": "https://map.bemanicn.com/shop/297",
    "name": "星河奇迹(韶关步行街店)",
    "province": "广东省",
    "location": "韶关市浈江区",
    "address": "文化街与风度南路步行街交叉口东南100米星河奇迹韶关浈江U购城店"
  },
  "48": {
    "id": 48,
    "url": "https://map.bemanicn.com/shop/48",
    "name": "核客电玩城",
    "province": "广东省",
    "location": "深圳市罗湖区",
    "address": "深南东路3020号百货广场大厦B-1-1核客电玩城"
  },
  "49": {
    "id": 49,
    "url": "https://map.bemanicn.com/shop/49",
    "name": "反斗乐园金光华店",
    "province": "广东省",
    "location": "深圳市罗湖区",
    "address": "人民南路2028号金光华广场4楼"
  },
  "50": {
    "id": 50,
    "url": "https://map.bemanicn.com/shop/50",
    "name": "星际传奇京基KKmall店",
    "province": "广东省",
    "location": "深圳市罗湖区",
    "address": "深南东路5016号蔡屋围京基金融中心京基百纳空间F3层L313、313A"
  },
  "44": {
    "id": 44,
    "url": "https://map.bemanicn.com/shop/44",
    "name": "反斗乐园印力中心店",
    "province": "广东省",
    "location": "深圳市福田区",
    "address": "农林路69号印力中心三楼"
  },
  "45": {
    "id": 45,
    "url": "https://map.bemanicn.com/shop/45",
    "name": "星际传奇梅林卓悦汇店",
    "province": "广东省",
    "location": "深圳市福田区",
    "address": "中康路126号卓悦汇购物中心3L"
  },
  "46": {
    "id": 46,
    "url": "https://map.bemanicn.com/shop/46",
    "name": "反斗乐园中心城",
    "province": "广东省",
    "location": "深圳市福田区",
    "address": "福华一路3号中心城广场"
  },
  "437": {
    "id": 437,
    "url": "https://map.bemanicn.com/shop/437",
    "name": "反斗乐园（天虹购物中心店）",
    "province": "广东省",
    "location": "深圳市福田区",
    "address": "中航路1号九方购物中心5层"
  },
  "296": {
    "id": 296,
    "url": "https://map.bemanicn.com/shop/296",
    "name": "冒险岛深圳南山方大城店",
    "province": "广东省",
    "location": "深圳市南山区",
    "address": "龙珠四路2号南山方大城3楼"
  },
  "605": {
    "id": 605,
    "url": "https://map.bemanicn.com/shop/605",
    "name": "极客森超乐场深圳宝能城店",
    "province": "广东省",
    "location": "深圳市南山区",
    "address": "西丽留仙大道塘朗地铁站D出口宝能城三楼"
  },
  "912": {
    "id": 912,
    "url": "https://map.bemanicn.com/shop/912",
    "name": "反斗乐园(海岸城店)",
    "province": "广东省",
    "location": "深圳市南山区",
    "address": "文心五路33号"
  },
  "679": {
    "id": 679,
    "url": "https://map.bemanicn.com/shop/679",
    "name": "彩虹王国深圳众冠店",
    "province": "广东省",
    "location": "深圳市南山区",
    "address": "留仙大道1213号 益田•假日里3楼 彩虹王国"
  },
  "489": {
    "id": 489,
    "url": "https://map.bemanicn.com/shop/489",
    "name": "星际传奇万象天地店",
    "province": "广东省",
    "location": "深圳市南山区",
    "address": "粤海街道深南大道9668号华润城万象天地L4层SL435"
  },
  "283": {
    "id": 283,
    "url": "https://map.bemanicn.com/shop/283",
    "name": "星际传奇大仟里店",
    "province": "广东省",
    "location": "深圳市宝安区",
    "address": "宝安大道和海城路交汇处(地铁1号线坪洲站A出口)坪洲大仟里3楼"
  },
  "552": {
    "id": 552,
    "url": "https://map.bemanicn.com/shop/552",
    "name": "星际传奇深圳宝安壹方城店",
    "province": "广东省",
    "location": "深圳市宝安区",
    "address": "宝安中心壹方城购物中心三楼星际传奇"
  },
  "53": {
    "id": 53,
    "url": "https://map.bemanicn.com/shop/53",
    "name": "明日世界娱乐体验馆",
    "province": "广东省",
    "location": "深圳市宝安区",
    "address": "宝安大道6259号同泰时代广场3楼"
  },
  "567": {
    "id": 567,
    "url": "https://map.bemanicn.com/shop/567",
    "name": "星际传奇(海雅缤纷城店)",
    "province": "广东省",
    "location": "深圳市宝安区",
    "address": "建安一路99号海雅缤纷城F1层"
  },
  "415": {
    "id": 415,
    "url": "https://map.bemanicn.com/shop/415",
    "name": "彩虹王国",
    "province": "广东省",
    "location": "深圳市宝安区",
    "address": "沙井街道西环路2105号"
  },
  "971": {
    "id": 971,
    "url": "https://map.bemanicn.com/shop/971",
    "name": "奇乐多动漫乐园(形色城购物广场)",
    "province": "广东省",
    "location": "深圳市宝安区",
    "address": "沙井街道中心路34-1号形色城购物广场F6层"
  },
  "51": {
    "id": 51,
    "url": "https://map.bemanicn.com/shop/51",
    "name": "星际传奇龙岗万科店",
    "province": "广东省",
    "location": "深圳市龙岗区",
    "address": "龙翔大道7188号万科广场"
  },
  "877": {
    "id": 877,
    "url": "https://map.bemanicn.com/shop/877",
    "name": "极客森超乐场深圳万科里店",
    "province": "广东省",
    "location": "深圳市龙岗区",
    "address": "龙岗大道3999号龙岗区政府正对面万科里负一楼极客森"
  },
  "688": {
    "id": 688,
    "url": "https://map.bemanicn.com/shop/688",
    "name": "铃屋Suzuya",
    "province": "广东省",
    "location": "深圳市龙岗区",
    "address": "中心城欧景城步行街15号铃屋"
  },
  "976": {
    "id": 976,
    "url": "https://map.bemanicn.com/shop/976",
    "name": "极客森超乐场游戏体验中心",
    "province": "广东省",
    "location": "深圳市龙岗区",
    "address": "龙岗大道东部星悦天地3层"
  },
  "490": {
    "id": 490,
    "url": "https://map.bemanicn.com/shop/490",
    "name": "奇妙世界",
    "province": "广东省",
    "location": "深圳市盐田区",
    "address": "大鹏新区南澳街道新东路28号桔钓沙莱华度假酒店主楼负一楼（奇妙世界）"
  },
  "47": {
    "id": 47,
    "url": "https://map.bemanicn.com/shop/47",
    "name": "星际传奇九方店（现天虹）",
    "province": "广东省",
    "location": "深圳市龙华区",
    "address": "人民路2020号天虹购物中心顶楼（原九方）"
  },
  "720": {
    "id": 720,
    "url": "https://map.bemanicn.com/shop/720",
    "name": "轩轩窝",
    "province": "广东省",
    "location": "深圳市龙华区",
    "address": "樟坑一区91号"
  },
  "478": {
    "id": 478,
    "url": "https://map.bemanicn.com/shop/478",
    "name": "漫迪掏堡游乐园",
    "province": "广东省",
    "location": "深圳市龙华区",
    "address": "民治大道328号大润发4楼"
  },
  "1038": {
    "id": 1038,
    "url": "https://map.bemanicn.com/shop/1038",
    "name": "星际传奇光明大仟里店",
    "province": "广东省",
    "location": "深圳市光明区",
    "address": "松白路4699号"
  },
  "143": {
    "id": 143,
    "url": "https://map.bemanicn.com/shop/143",
    "name": "反斗乐园（珠海）",
    "province": "广东省",
    "location": "珠海市市辖区",
    "address": "珠海市白石路富华里12栋2楼"
  },
  "144": {
    "id": 144,
    "url": "https://map.bemanicn.com/shop/144",
    "name": "星际传奇（珠海）",
    "province": "广东省",
    "location": "珠海市市辖区",
    "address": "珠海市明珠南路1101号诚丰广场3楼"
  },
  "145": {
    "id": 145,
    "url": "https://map.bemanicn.com/shop/145",
    "name": "星际传奇 海韵城店",
    "province": "广东省",
    "location": "珠海市市辖区",
    "address": "渔湾路29号（城建海韵城C1层L1-38）"
  },
  "603": {
    "id": 603,
    "url": "https://map.bemanicn.com/shop/603",
    "name": "星际传奇（优特汇店）",
    "province": "广东省",
    "location": "珠海市香洲区",
    "address": "银桦路102号优特科技大厦3楼L303"
  },
  "684": {
    "id": 684,
    "url": "https://map.bemanicn.com/shop/684",
    "name": "城市英雄（香洲弘桥商城店）",
    "province": "广东省",
    "location": "珠海市香洲区",
    "address": "南湾北路45号"
  },
  "1022": {
    "id": 1022,
    "url": "https://map.bemanicn.com/shop/1022",
    "name": "星际传奇（珠海优特汇店）",
    "province": "广东省",
    "location": "珠海市香洲区",
    "address": "银桦路98号正西方向180米 三楼"
  },
  "146": {
    "id": 146,
    "url": "https://map.bemanicn.com/shop/146",
    "name": "热带雨林大型游乐场",
    "province": "广东省",
    "location": "珠海市斗门区",
    "address": "斗门区井岸镇渡江路与滨江路交口大信新都汇"
  },
  "147": {
    "id": 147,
    "url": "https://map.bemanicn.com/shop/147",
    "name": "南国游乐场（井岸店）",
    "province": "广东省",
    "location": "珠海市斗门区",
    "address": "斗门区井岸镇港霞东路98号南国欢乐城三楼"
  },
  "148": {
    "id": 148,
    "url": "https://map.bemanicn.com/shop/148",
    "name": "玩家英雄珠海家和城广场店",
    "province": "广东省",
    "location": "珠海市斗门区",
    "address": "斗门区湖心路1138号家和城广场二层2002号铺位"
  },
  "155": {
    "id": 155,
    "url": "https://map.bemanicn.com/shop/155",
    "name": "圣堡罗动漫游艺",
    "province": "广东省",
    "location": "汕头市龙湖区",
    "address": "广东省汕头市龙湖区华山路11号永成大厦圣堡罗动漫游艺"
  },
  "156": {
    "id": 156,
    "url": "https://map.bemanicn.com/shop/156",
    "name": "星球小镇儿童乐园汕头龙湖店",
    "province": "广东省",
    "location": "汕头市龙湖区",
    "address": "广东省汕头市龙湖区华山北路57号充耀号商住中心一层"
  },
  "157": {
    "id": 157,
    "url": "https://map.bemanicn.com/shop/157",
    "name": "晴空乐园F16分店",
    "province": "广东省",
    "location": "汕头市龙湖区",
    "address": "广东省汕头市龙湖区黄山路16号F16购物广场3F"
  },
  "428": {
    "id": 428,
    "url": "https://map.bemanicn.com/shop/428",
    "name": "卡乐潮漫(新一城商业广场店)",
    "province": "广东省",
    "location": "汕头市龙湖区",
    "address": "汕头市龙湖区长江路23号新一城商业广场F2"
  },
  "446": {
    "id": 446,
    "url": "https://map.bemanicn.com/shop/446",
    "name": "晴空乐园群光汇店",
    "province": "广东省",
    "location": "汕头市龙湖区",
    "address": "广东省汕头市龙湖区长平路98号群光汇（3F,4F)"
  },
  "773": {
    "id": 773,
    "url": "https://map.bemanicn.com/shop/773",
    "name": "大玩家汕头金平万达店",
    "province": "广东省",
    "location": "汕头市金平区",
    "address": "光华街道潮汕路61号汕头万达广场4楼大玩家超乐场"
  },
  "610": {
    "id": 610,
    "url": "https://map.bemanicn.com/shop/610",
    "name": "晴空超乐场东厦100店",
    "province": "广东省",
    "location": "汕头市金平区",
    "address": "汕头市金平区东厦路100号东厦100购物商场2楼"
  },
  "433": {
    "id": 433,
    "url": "https://map.bemanicn.com/shop/433",
    "name": "卡乐潮漫(卜蜂中心店)",
    "province": "广东省",
    "location": "汕头市金平区",
    "address": "汕头市金平区广厦街道东厦北路175号卜蜂中心3层007号"
  },
  "891": {
    "id": 891,
    "url": "https://map.bemanicn.com/shop/891",
    "name": "星河奇迹佛山王府井紫薇港店",
    "province": "广东省",
    "location": "佛山市禅城区",
    "address": "季华四路68号王府井百货L3032-2"
  },
  "911": {
    "id": 911,
    "url": "https://map.bemanicn.com/shop/911",
    "name": "乐动乐享家庭互动娱乐(世博广场店)",
    "province": "广东省",
    "location": "佛山市禅城区",
    "address": "汾江南路38号世博广场三楼"
  },
  "151": {
    "id": 151,
    "url": "https://map.bemanicn.com/shop/151",
    "name": "佛山东方广场梦幻谷",
    "province": "广东省",
    "location": "佛山市禅城区",
    "address": "佛山市禅城区锦华路83号"
  },
  "600": {
    "id": 600,
    "url": "https://map.bemanicn.com/shop/600",
    "name": "猿计划游艺MALL佛山店",
    "province": "广东省",
    "location": "佛山市南海区",
    "address": "桂城街道桂澜中路23号南海万科广场负一层"
  },
  "486": {
    "id": 486,
    "url": "https://map.bemanicn.com/shop/486",
    "name": "环游嘉年华佛山南海永旺店",
    "province": "广东省",
    "location": "佛山市南海区",
    "address": "大沥镇滘口路永旺梦乐城2楼201铺"
  },
  "1008": {
    "id": 1008,
    "url": "https://map.bemanicn.com/shop/1008",
    "name": "迪迪嘉年华畅玩馆",
    "province": "广东省",
    "location": "佛山市南海区",
    "address": "锦湖大道2号观心小镇"
  },
  "763": {
    "id": 763,
    "url": "https://map.bemanicn.com/shop/763",
    "name": "星际传奇佛山南海南宇广场店",
    "province": "广东省",
    "location": "佛山市南海区",
    "address": "桂城街道石龙南路6号南宇广场L3层D14单元"
  },
  "599": {
    "id": 599,
    "url": "https://map.bemanicn.com/shop/599",
    "name": "城市英雄动漫游戏体验中心(乐从天佑城店)",
    "province": "广东省",
    "location": "佛山市顺德区",
    "address": "乐从大道东路B270号乐从天佑城4层"
  },
  "653": {
    "id": 653,
    "url": "https://map.bemanicn.com/shop/653",
    "name": "智多宝儿童欢乐大世界（顺德大良店）",
    "province": "广东省",
    "location": "佛山市顺德区",
    "address": "大良街道凤山中路101号天汇百汇3楼"
  },
  "988": {
    "id": 988,
    "url": "https://map.bemanicn.com/shop/988",
    "name": "游戏童年PLAYGROW佛山顺德店",
    "province": "广东省",
    "location": "佛山市顺德区",
    "address": "裕和路109号东平保利广场3楼游戏童年PLAYGROW家庭娱乐中心"
  },
  "502": {
    "id": 502,
    "url": "https://map.bemanicn.com/shop/502",
    "name": "大玩家（顺德大良大融城店）",
    "province": "广东省",
    "location": "佛山市顺德区",
    "address": "大良南国东路30号F3"
  },
  "762": {
    "id": 762,
    "url": "https://map.bemanicn.com/shop/762",
    "name": "猿计划游艺MALL顺德大良店",
    "province": "广东省",
    "location": "佛山市顺德区",
    "address": "大良街道欢乐大道1号华侨城O.PLAZA商场3楼"
  },
  "511": {
    "id": 511,
    "url": "https://map.bemanicn.com/shop/511",
    "name": "城市英雄动漫体验中心（容桂天佑城店）",
    "province": "广东省",
    "location": "佛山市顺德区",
    "address": "容桂桂洲大道中63号天佑城F3"
  },
  "150": {
    "id": 150,
    "url": "https://map.bemanicn.com/shop/150",
    "name": "大玩家三水店",
    "province": "广东省",
    "location": "佛山市三水区",
    "address": "佛山市三水区健力宝大道万达广场3楼大玩家"
  },
  "132": {
    "id": 132,
    "url": "https://map.bemanicn.com/shop/132",
    "name": "大玩家蓬江万达广场店",
    "province": "广东省",
    "location": "江门市蓬江区",
    "address": "江门市蓬江区发展大道万达广场2楼"
  },
  "133": {
    "id": 133,
    "url": "https://map.bemanicn.com/shop/133",
    "name": "环游嘉年华（江门汇悦城店）",
    "province": "广东省",
    "location": "江门市蓬江区",
    "address": "广东省江门市蓬江区白石大道166号汇悦城三楼西侧"
  },
  "134": {
    "id": 134,
    "url": "https://map.bemanicn.com/shop/134",
    "name": "智趣乐园（江门汇悦城店）",
    "province": "广东省",
    "location": "江门市蓬江区",
    "address": "广东省江门市蓬江区白石大道166号汇悦城三楼东侧"
  },
  "740": {
    "id": 740,
    "url": "https://map.bemanicn.com/shop/740",
    "name": "梦幻之城",
    "province": "广东省",
    "location": "江门市蓬江区",
    "address": "白石大道213号健威广场三楼梦幻之城"
  },
  "634": {
    "id": 634,
    "url": "https://map.bemanicn.com/shop/634",
    "name": "玩趣时代江门星汇广场店",
    "province": "广东省",
    "location": "江门市新会区",
    "address": "会城大新路50号星汇广场2层"
  },
  "137": {
    "id": 137,
    "url": "https://map.bemanicn.com/shop/137",
    "name": "大玩家新会万达广场店",
    "province": "广东省",
    "location": "江门市新会区",
    "address": "江门市新会区会城启超大道2号万达广场二楼"
  },
  "138": {
    "id": 138,
    "url": "https://map.bemanicn.com/shop/138",
    "name": "新会美吉特广场",
    "province": "广东省",
    "location": "江门市新会区",
    "address": "江门市新会区会城启超大道9号美吉特广场三楼"
  },
  "461": {
    "id": 461,
    "url": "https://map.bemanicn.com/shop/461",
    "name": "城市英雄(广东省江门市)",
    "province": "广东省",
    "location": "江门市开平市",
    "address": "开平大道1号东汇城3楼"
  },
  "436": {
    "id": 436,
    "url": "https://map.bemanicn.com/shop/436",
    "name": "城市英雄（鹤山）",
    "province": "广东省",
    "location": "江门市鹤山市",
    "address": "鹤山广场三楼电梯门口"
  },
  "849": {
    "id": 849,
    "url": "https://map.bemanicn.com/shop/849",
    "name": "拿酷科幻城湛江赤坎店",
    "province": "广东省",
    "location": "湛江市赤坎区",
    "address": "观海北路18号丽悦新天b1层拿酷科幻城"
  },
  "153": {
    "id": 153,
    "url": "https://map.bemanicn.com/shop/153",
    "name": "游趣休闲健身 湛江店",
    "province": "广东省",
    "location": "湛江市赤坎区",
    "address": "赤坎区中山一路1号世贸大厦负一层"
  },
  "154": {
    "id": 154,
    "url": "https://map.bemanicn.com/shop/154",
    "name": "欢乐英雄电玩 海滨公园时代广场",
    "province": "广东省",
    "location": "湛江市霞山区",
    "address": "湛江市霞山区海滨大道南海滨公园时代广场"
  },
  "440": {
    "id": 440,
    "url": "https://map.bemanicn.com/shop/440",
    "name": "极限主场（湛江华都汇店）",
    "province": "广东省",
    "location": "湛江市霞山区",
    "address": "绿华路48号华都汇2楼"
  },
  "810": {
    "id": 810,
    "url": "https://map.bemanicn.com/shop/810",
    "name": "明湖娱乐城",
    "province": "广东省",
    "location": "茂名市茂南区",
    "address": "为民南路2-8号明湖超市四楼"
  },
  "729": {
    "id": 729,
    "url": "https://map.bemanicn.com/shop/729",
    "name": "天空之城",
    "province": "广东省",
    "location": "茂名市茂南区",
    "address": "油城八路3号(文化广场地下)"
  },
  "581": {
    "id": 581,
    "url": "https://map.bemanicn.com/shop/581",
    "name": "大玩家",
    "province": "广东省",
    "location": "茂名市电白区",
    "address": "迎宾大道中66号万达广场"
  },
  "152": {
    "id": 152,
    "url": "https://map.bemanicn.com/shop/152",
    "name": "星河奇迹 肇庆",
    "province": "广东省",
    "location": "肇庆市端州区",
    "address": "端州区星湖国际广场一期北座四楼"
  },
  "719": {
    "id": 719,
    "url": "https://map.bemanicn.com/shop/719",
    "name": "星月方舟乐园（肇庆）",
    "province": "广东省",
    "location": "肇庆市端州区",
    "address": "信安三路3号敏捷广场6期三层3085号"
  },
  "851": {
    "id": 851,
    "url": "https://map.bemanicn.com/shop/851",
    "name": "星际传奇（华贸天地店）",
    "province": "广东省",
    "location": "惠州市惠城区",
    "address": "文昌一路9号"
  },
  "128": {
    "id": 128,
    "url": "https://map.bemanicn.com/shop/128",
    "name": "惠州港惠极限地带",
    "province": "广东省",
    "location": "惠州市惠城区",
    "address": "惠州市惠城区演达大道7号港惠新天地B1层（地下一层）"
  },
  "764": {
    "id": 764,
    "url": "https://map.bemanicn.com/shop/764",
    "name": "华贸天地反斗城",
    "province": "广东省",
    "location": "惠州市惠城区",
    "address": "华贸天地四楼美食街"
  },
  "302": {
    "id": 302,
    "url": "https://map.bemanicn.com/shop/302",
    "name": "好宜多电玩城惠州惠阳店",
    "province": "广东省",
    "location": "惠州市惠阳区",
    "address": "崇雅路好宜多商贸广场五楼(崇雅中学)好宜多电玩城"
  },
  "564": {
    "id": 564,
    "url": "https://map.bemanicn.com/shop/564",
    "name": "奇乐魔方",
    "province": "广东省",
    "location": "惠州市博罗县",
    "address": "罗阳镇北门路8587号金铂中心广场一楼"
  },
  "1023": {
    "id": 1023,
    "url": "https://map.bemanicn.com/shop/1023",
    "name": "惠州美多儿童游乐城",
    "province": "广东省",
    "location": "惠州市惠东县",
    "address": "平山街道新平大道302号3楼儿童游乐城"
  },
  "519": {
    "id": 519,
    "url": "https://map.bemanicn.com/shop/519",
    "name": "城市英雄动漫城(信利·城市广场)",
    "province": "广东省",
    "location": "汕尾市城区",
    "address": "汕尾大道中段信利·城市广场F4层"
  },
  "611": {
    "id": 611,
    "url": "https://map.bemanicn.com/shop/611",
    "name": "奥纪电玩城（汕尾店）",
    "province": "广东省",
    "location": "汕尾市城区",
    "address": "香洲路明珠广场三层"
  },
  "779": {
    "id": 779,
    "url": "https://map.bemanicn.com/shop/779",
    "name": "非凡乐园",
    "province": "广东省",
    "location": "河源市源城区",
    "address": "太平新街A1A2区3楼"
  },
  "780": {
    "id": 780,
    "url": "https://map.bemanicn.com/shop/780",
    "name": "星际传奇(坚基店)",
    "province": "广东省",
    "location": "河源市源城区",
    "address": "越王大道139号 坚基购物中心3楼"
  },
  "791": {
    "id": 791,
    "url": "https://map.bemanicn.com/shop/791",
    "name": "糖果乐园",
    "province": "广东省",
    "location": "河源市源城区",
    "address": "长塘路13号新世界广场(河源儿童城)第三层"
  },
  "549": {
    "id": 549,
    "url": "https://map.bemanicn.com/shop/549",
    "name": "极限主场（新达城店）",
    "province": "广东省",
    "location": "阳江市江城区",
    "address": "创业北路新达城时代广场3楼"
  },
  "882": {
    "id": 882,
    "url": "https://map.bemanicn.com/shop/882",
    "name": "梦幻之城主题乐园（恒生壹号广场店）",
    "province": "广东省",
    "location": "阳江市阳春市",
    "address": "春城街道阳春大道北168号恒生壹号广场G幢三层G301、G302、G303、G305号商铺"
  },
  "555": {
    "id": 555,
    "url": "https://map.bemanicn.com/shop/555",
    "name": "开心主场乐园",
    "province": "广东省",
    "location": "清远市清城区",
    "address": "人民一路28号顺盈时代广场3层"
  },
  "139": {
    "id": 139,
    "url": "https://map.bemanicn.com/shop/139",
    "name": "冠宇开心主场",
    "province": "广东省",
    "location": "清远市清城区",
    "address": "清远市清城区旧城先锋中路18号城市广场后座三楼"
  },
  "140": {
    "id": 140,
    "url": "https://map.bemanicn.com/shop/140",
    "name": "新城赢之城",
    "province": "广东省",
    "location": "清远市清城区",
    "address": "清城区人民二路-连江路赢之城二楼"
  },
  "141": {
    "id": 141,
    "url": "https://map.bemanicn.com/shop/141",
    "name": "play1清远万达",
    "province": "广东省",
    "location": "清远市清城区",
    "address": "湖西路89号"
  },
  "142": {
    "id": 142,
    "url": "https://map.bemanicn.com/shop/142",
    "name": "奇幻森林",
    "province": "广东省",
    "location": "清远市清城区",
    "address": "清远市大润发2楼"
  },
  "724": {
    "id": 724,
    "url": "https://map.bemanicn.com/shop/724",
    "name": "疯狂牛仔城(世纪荟广场)",
    "province": "广东省",
    "location": "清远市清城区",
    "address": "世纪荟广场一层"
  },
  "311": {
    "id": 311,
    "url": "https://map.bemanicn.com/shop/311",
    "name": "环游嘉年华东莞民盈国贸店",
    "province": "广东省",
    "location": "东莞市东城街道办事处",
    "address": "鸿福东路1号国贸城购物中心5号楼L3001-3003"
  },
  "969": {
    "id": 969,
    "url": "https://map.bemanicn.com/shop/969",
    "name": "好玩谷动漫游戏主题乐园东莞店",
    "province": "广东省",
    "location": "东莞市南城街道办事处",
    "address": "鸿福路88号莱蒙商业中心三楼好玩谷动漫游戏主题乐园"
  },
  "576": {
    "id": 576,
    "url": "https://map.bemanicn.com/shop/576",
    "name": "极限主场（天一城店）",
    "province": "广东省",
    "location": "东莞市樟木头镇",
    "address": "樟木头镇西城路11号天一城3楼"
  },
  "1049": {
    "id": 1049,
    "url": "https://map.bemanicn.com/shop/1049",
    "name": "冠宇开心主场(清溪店)",
    "province": "广东省",
    "location": "东莞市清溪镇",
    "address": "鹿鸣路68号"
  },
  "305": {
    "id": 305,
    "url": "https://map.bemanicn.com/shop/305",
    "name": "城市英雄东莞长安店",
    "province": "广东省",
    "location": "东莞市长安镇",
    "address": "长青南路1号万科广场3层309"
  },
  "418": {
    "id": 418,
    "url": "https://map.bemanicn.com/shop/418",
    "name": "乐趣时代",
    "province": "广东省",
    "location": "中山市石岐区街道办事处",
    "address": "石岐区街道孙文东路28号"
  },
  "424": {
    "id": 424,
    "url": "https://map.bemanicn.com/shop/424",
    "name": "金龙欢乐儿童世界-乐动全城（石岐店）",
    "province": "广东省",
    "location": "中山市石岐区街道办事处",
    "address": "大信新都汇A座5楼"
  },
  "425": {
    "id": 425,
    "url": "https://map.bemanicn.com/shop/425",
    "name": "阳光探险乐园（利和店）",
    "province": "广东省",
    "location": "中山市石岐区街道办事处",
    "address": "中山三路16号利和广场3楼336B"
  },
  "692": {
    "id": 692,
    "url": "https://map.bemanicn.com/shop/692",
    "name": "智趣乐园(石岐大信店)",
    "province": "广东省",
    "location": "中山市石岐区街道办事处",
    "address": "莲员东路2号大信·新都汇二期B座3楼"
  },
  "1037": {
    "id": 1037,
    "url": "https://map.bemanicn.com/shop/1037",
    "name": "中山市文化馆",
    "province": "广东省",
    "location": "中山市东区街道办事处",
    "address": "博爱五路2号中山市文化馆二楼"
  },
  "667": {
    "id": 667,
    "url": "https://map.bemanicn.com/shop/667",
    "name": "极限主场天奕店",
    "province": "广东省",
    "location": "中山市东区街道办事处",
    "address": "东区中山六路1号天奕星河COCOCity3楼310卡"
  },
  "691": {
    "id": 691,
    "url": "https://map.bemanicn.com/shop/691",
    "name": "智趣乐园(远洋大信新都汇店)",
    "province": "广东省",
    "location": "中山市东区街道办事处",
    "address": "博爱六路28号3栋大信·新都汇3F02"
  },
  "494": {
    "id": 494,
    "url": "https://map.bemanicn.com/shop/494",
    "name": "开心主场（原世宇乐园）",
    "province": "广东省",
    "location": "中山市火炬开发区街道办事处",
    "address": "火炬开发区街道火炬高技术开发区港城路1号壹加壹超市2楼"
  },
  "650": {
    "id": 650,
    "url": "https://map.bemanicn.com/shop/650",
    "name": "酷比魔方动漫游戏体验中心（天悦城店）",
    "province": "广东省",
    "location": "中山市西区街道办事处",
    "address": "西区街道富华道32号天悦广场4010铺"
  },
  "422": {
    "id": 422,
    "url": "https://map.bemanicn.com/shop/422",
    "name": "热带雨林（小榄店）",
    "province": "广东省",
    "location": "中山市小榄镇",
    "address": "小榄镇新华中路118号大信新都汇118广场3楼"
  },
  "844": {
    "id": 844,
    "url": "https://map.bemanicn.com/shop/844",
    "name": "热带雨林家庭娱乐体验中心",
    "province": "广东省",
    "location": "中山市三角镇",
    "address": "三角镇福源南路23号"
  },
  "858": {
    "id": 858,
    "url": "https://map.bemanicn.com/shop/858",
    "name": "热带雨林(阜沙店)",
    "province": "广东省",
    "location": "中山市阜沙镇",
    "address": "阜沙大道63号"
  },
  "413": {
    "id": 413,
    "url": "https://map.bemanicn.com/shop/413",
    "name": "晴空超乐场",
    "province": "广东省",
    "location": "潮州市湘桥区",
    "address": "潮州市湘桥区财富中心南风里B区三层"
  },
  "865": {
    "id": 865,
    "url": "https://map.bemanicn.com/shop/865",
    "name": "东方康宁动漫城",
    "province": "广东省",
    "location": "揭阳市榕城区",
    "address": "榕华大道75号"
  },
  "826": {
    "id": 826,
    "url": "https://map.bemanicn.com/shop/826",
    "name": "晴空超乐场揭阳揭东店",
    "province": "广东省",
    "location": "揭阳市揭东区",
    "address": "揭阳天虹购物中心"
  },
  "432": {
    "id": 432,
    "url": "https://map.bemanicn.com/shop/432",
    "name": "极限主场普宁店",
    "province": "广东省",
    "location": "揭阳市普宁市",
    "address": "流沙环市北路万泰汇广场负一层（极限主场）"
  },
  "702": {
    "id": 702,
    "url": "https://map.bemanicn.com/shop/702",
    "name": "智趣乐园（云浮罗定客都汇店）",
    "province": "广东省",
    "location": "云浮市罗定市",
    "address": "罗城街道龙园路133号罗定体育商业广场首一层电玩城旁边铺位"
  },
  "373": {
    "id": 373,
    "url": "https://map.bemanicn.com/shop/373",
    "name": "好特电玩（新朝阳店）",
    "province": "广西壮族自治区",
    "location": "南宁市兴宁区",
    "address": "朝阳路38号新朝阳商业广场F4层"
  },
  "375": {
    "id": 375,
    "url": "https://map.bemanicn.com/shop/375",
    "name": "风云再起（南宁西南商都店）",
    "province": "广西壮族自治区",
    "location": "南宁市兴宁区",
    "address": "朝阳路29号西南商都购物广场负一楼"
  },
  "378": {
    "id": 378,
    "url": "https://map.bemanicn.com/shop/378",
    "name": "玛丽奥电玩（南宁）",
    "province": "广西壮族自治区",
    "location": "南宁市兴宁区",
    "address": "兴宁路59号金逸国际电影城(红星店)1层"
  },
  "376": {
    "id": 376,
    "url": "https://map.bemanicn.com/shop/376",
    "name": "星际传奇航洋店",
    "province": "广西壮族自治区",
    "location": "南宁市青秀区",
    "address": "民族大道131号 航洋国际购物中心 三楼"
  },
  "377": {
    "id": 377,
    "url": "https://map.bemanicn.com/shop/377",
    "name": "大玩家超乐场青秀万达店",
    "province": "广西壮族自治区",
    "location": "南宁市青秀区",
    "address": "东葛路延长线118号万达广场3F层"
  },
  "805": {
    "id": 805,
    "url": "https://map.bemanicn.com/shop/805",
    "name": "大玩家南宁江南万达店",
    "province": "广西壮族自治区",
    "location": "南宁市江南区",
    "address": "亭洪路48-1号江南万达广场一号门二楼"
  },
  "384": {
    "id": 384,
    "url": "https://map.bemanicn.com/shop/384",
    "name": "柳州大玩家",
    "province": "广西壮族自治区",
    "location": "柳州市城中区",
    "address": "城中区东文兴路柳州万达广场3层"
  },
  "385": {
    "id": 385,
    "url": "https://map.bemanicn.com/shop/385",
    "name": "好特电玩（步步高店）",
    "province": "广西壮族自治区",
    "location": "柳州市城中区",
    "address": "广场路10号步步高购物广场6层"
  },
  "386": {
    "id": 386,
    "url": "https://map.bemanicn.com/shop/386",
    "name": "好特电玩（五星店）",
    "province": "广西壮族自治区",
    "location": "柳州市城中区",
    "address": "解放南路87号广惠大厦负一楼"
  },
  "388": {
    "id": 388,
    "url": "https://map.bemanicn.com/shop/388",
    "name": "大欢喜电玩城",
    "province": "广西壮族自治区",
    "location": "柳州市鱼峰区",
    "address": "鱼峰路鱼峰商业城B1层(中国移动楼下)"
  },
  "638": {
    "id": 638,
    "url": "https://map.bemanicn.com/shop/638",
    "name": "大玩家（柳南店）",
    "province": "广西壮族自治区",
    "location": "柳州市柳南区",
    "address": "柳邕路263号"
  },
  "387": {
    "id": 387,
    "url": "https://map.bemanicn.com/shop/387",
    "name": "五星娱乐城",
    "province": "广西壮族自治区",
    "location": "柳州市柳南区",
    "address": "飞鹅二路1号谷埠街国际商城E区三楼"
  },
  "380": {
    "id": 380,
    "url": "https://map.bemanicn.com/shop/380",
    "name": "玛丽奥电玩（桂林）",
    "province": "广西壮族自治区",
    "location": "桂林市秀峰区",
    "address": "中山中路36号桂林大世界科技城地下商场内"
  },
  "381": {
    "id": 381,
    "url": "https://map.bemanicn.com/shop/381",
    "name": "好特电玩恒源店",
    "province": "广西壮族自治区",
    "location": "桂林市秀峰区",
    "address": "解放东路21号工会大厦-1楼(近文化大厦)"
  },
  "1030": {
    "id": 1030,
    "url": "https://map.bemanicn.com/shop/1030",
    "name": "大玩家超乐场（桂林叠彩万达）",
    "province": "广西壮族自治区",
    "location": "桂林市叠彩区",
    "address": "滨北路169号"
  },
  "383": {
    "id": 383,
    "url": "https://map.bemanicn.com/shop/383",
    "name": "游戏迷超乐场",
    "province": "广西壮族自治区",
    "location": "桂林市叠彩区",
    "address": "北辰路1号桂林恒大广场北区25号3层3-01号（非常接近桂林北站）"
  },
  "391": {
    "id": 391,
    "url": "https://map.bemanicn.com/shop/391",
    "name": "漫拉迪动漫城（北海）",
    "province": "广西壮族自治区",
    "location": "北海市海城区",
    "address": "和安宁春城9楼"
  },
  "392": {
    "id": 392,
    "url": "https://map.bemanicn.com/shop/392",
    "name": "北海大玩家Play1",
    "province": "广西壮族自治区",
    "location": "北海市银海区",
    "address": "广东路225号万达广场1号门3楼"
  },
  "483": {
    "id": 483,
    "url": "https://map.bemanicn.com/shop/483",
    "name": "风云再起游乐汇（钦州）",
    "province": "广西壮族自治区",
    "location": "钦州市钦南区",
    "address": "金海湾东大街1号新城吾悦广场第四层Z12区"
  },
  "474": {
    "id": 474,
    "url": "https://map.bemanicn.com/shop/474",
    "name": "好特电玩（玉州路店）",
    "province": "广西壮族自治区",
    "location": "玉林市玉州区",
    "address": "玉州路130号名流商城2层"
  },
  "397": {
    "id": 397,
    "url": "https://map.bemanicn.com/shop/397",
    "name": "大玩家（秀英万达店）",
    "province": "海南省",
    "location": "海口市秀英区",
    "address": "海秀镇白水塘路与海榆中线交汇处万达广场3层"
  },
  "561": {
    "id": 561,
    "url": "https://map.bemanicn.com/shop/561",
    "name": "欣奇乐动漫研究所（宜欣城）",
    "province": "海南省",
    "location": "海口市龙华区",
    "address": "明珠路8号宜欣城西区3楼"
  },
  "857": {
    "id": 857,
    "url": "https://map.bemanicn.com/shop/857",
    "name": "华录乐园（吾悦广场店）",
    "province": "海南省",
    "location": "海口市龙华区",
    "address": "迎宾大道18号吾悦广场3楼"
  },
  "441": {
    "id": 441,
    "url": "https://map.bemanicn.com/shop/441",
    "name": "环游嘉年华（海口龙华上邦百汇城）",
    "province": "海南省",
    "location": "海口市龙华区",
    "address": "金龙路5号上邦百汇城3号楼2楼"
  },
  "713": {
    "id": 713,
    "url": "https://map.bemanicn.com/shop/713",
    "name": "华录乐园（友谊阳光城）",
    "province": "海南省",
    "location": "海口市龙华区",
    "address": "金龙路2号友谊阳光城3F（楼层不是很确定）"
  },
  "396": {
    "id": 396,
    "url": "https://map.bemanicn.com/shop/396",
    "name": "天空之城（日月广场店）",
    "province": "海南省",
    "location": "海口市琼山区",
    "address": "国兴大道8号海航日月广场水瓶座L层"
  },
  "601": {
    "id": 601,
    "url": "https://map.bemanicn.com/shop/601",
    "name": "日不落动漫网咖",
    "province": "海南省",
    "location": "海口市美兰区",
    "address": "海秀东路16号明珠广场6层东区"
  },
  "281": {
    "id": 281,
    "url": "https://map.bemanicn.com/shop/281",
    "name": "时光机动漫城",
    "province": "海南省",
    "location": "三亚市天涯区",
    "address": "天涯区胜利路老火车站胜利广场旺豪超市A区一层右侧时光机动漫城"
  },
  "310": {
    "id": 310,
    "url": "https://map.bemanicn.com/shop/310",
    "name": "南梦园电子游艺厅（河西店）",
    "province": "海南省",
    "location": "三亚市天涯区",
    "address": "河西路100号金润阳光购物广场F3层"
  },
  "946": {
    "id": 946,
    "url": "https://map.bemanicn.com/shop/946",
    "name": "大管家电玩城（分店）",
    "province": "海南省",
    "location": "省直辖县级行政区划东方市",
    "address": "解放东路华人国际东方影城一楼正门入口"
  },
  "505": {
    "id": 505,
    "url": "https://map.bemanicn.com/shop/505",
    "name": "大玩家（万州万达店）",
    "province": "重庆市",
    "location": "市辖区万州区",
    "address": "北滨大道二段998号万达广场2F层"
  },
  "864": {
    "id": 864,
    "url": "https://map.bemanicn.com/shop/864",
    "name": "爱玩嘉年华江北观音桥店",
    "province": "重庆市",
    "location": "市辖区江北区",
    "address": "北城天街2号(近天天尚街)"
  },
  "477": {
    "id": 477,
    "url": "https://map.bemanicn.com/shop/477",
    "name": "星际传奇(北城天街店)",
    "province": "重庆市",
    "location": "市辖区江北区",
    "address": "重庆市江北区北城天街a馆4F002a、4F002b、4FC02 b"
  },
  "768": {
    "id": 768,
    "url": "https://map.bemanicn.com/shop/768",
    "name": "龙小湖探索乐园重庆沙坪坝店",
    "province": "重庆市",
    "location": "市辖区沙坪坝区",
    "address": "北站东路188号附3号金沙天街B馆1F-21LT、2F-21LT、3F-21"
  },
  "58": {
    "id": 58,
    "url": "https://map.bemanicn.com/shop/58",
    "name": "宅漫游（宅窝）",
    "province": "重庆市",
    "location": "市辖区沙坪坝区",
    "address": "煌华新纪元4号楼12-1"
  },
  "59": {
    "id": 59,
    "url": "https://map.bemanicn.com/shop/59",
    "name": "风云再起重庆店",
    "province": "重庆市",
    "location": "市辖区沙坪坝区",
    "address": "重庆市沙坪坝区三峡广场渝碚路32号负一楼"
  },
  "60": {
    "id": 60,
    "url": "https://map.bemanicn.com/shop/60",
    "name": "爱玩嘉年华沙坪坝炫地店",
    "province": "重庆市",
    "location": "市辖区沙坪坝区",
    "address": "沙坪坝区三峡广场"
  },
  "613": {
    "id": 613,
    "url": "https://map.bemanicn.com/shop/613",
    "name": "环游嘉年华(重庆融创茂店)",
    "province": "重庆市",
    "location": "市辖区沙坪坝区",
    "address": "西林大道84号融创茂2楼2086铺位环游嘉年华"
  },
  "950": {
    "id": 950,
    "url": "https://map.bemanicn.com/shop/950",
    "name": "爱玩嘉年华金沙店娱乐厅",
    "province": "重庆市",
    "location": "市辖区沙坪坝区",
    "address": "重庆市沙坪坝区三峡广场金沙天街B馆五楼爱玩嘉年华"
  },
  "556": {
    "id": 556,
    "url": "https://map.bemanicn.com/shop/556",
    "name": "爱玩嘉年华（重庆西城天街店）",
    "province": "重庆市",
    "location": "市辖区九龙坡区",
    "address": "龙湖重庆西城天街4楼"
  },
  "493": {
    "id": 493,
    "url": "https://map.bemanicn.com/shop/493",
    "name": "欢域摩天轮",
    "province": "重庆市",
    "location": "市辖区九龙坡区",
    "address": "杨家坪西郊路3号"
  },
  "927": {
    "id": 927,
    "url": "https://map.bemanicn.com/shop/927",
    "name": "星际传奇（协信星光时代广场店）",
    "province": "重庆市",
    "location": "市辖区南岸区",
    "address": "江南大道28号星光时代广场F5层"
  },
  "410": {
    "id": 410,
    "url": "https://map.bemanicn.com/shop/410",
    "name": "大玩家（巴南万达）",
    "province": "重庆市",
    "location": "市辖区巴南区",
    "address": "渝南大道297号"
  },
  "752": {
    "id": 752,
    "url": "https://map.bemanicn.com/shop/752",
    "name": "爱玩嘉年华(合川财富广场店)",
    "province": "重庆市",
    "location": "市辖区合川区",
    "address": "合阳大道绿港财富广场LG"
  },
  "465": {
    "id": 465,
    "url": "https://map.bemanicn.com/shop/465",
    "name": "大玩家(南川万达)",
    "province": "重庆市",
    "location": "市辖区南川区",
    "address": "渝南大道16号"
  },
  "980": {
    "id": 980,
    "url": "https://map.bemanicn.com/shop/980",
    "name": "星城嘉年华",
    "province": "重庆市",
    "location": "市辖区潼南区",
    "address": "隆鑫"
  },
  "275": {
    "id": 275,
    "url": "https://map.bemanicn.com/shop/275",
    "name": "汤姆熊（财富中心店）",
    "province": "四川省",
    "location": "成都市锦江区",
    "address": "大业路6号上普·财富中心广场4层"
  },
  "821": {
    "id": 821,
    "url": "https://map.bemanicn.com/shop/821",
    "name": "大玩家成都锦江万达店",
    "province": "四川省",
    "location": "成都市锦江区",
    "address": "锦华路一段68号万达广场三楼play1家庭娱乐中心"
  },
  "277": {
    "id": 277,
    "url": "https://map.bemanicn.com/shop/277",
    "name": "风云再起（四川成都天府广场店）",
    "province": "四川省",
    "location": "成都市青羊区",
    "address": "天府广场地铁站负一楼今站购物中心B50铺"
  },
  "835": {
    "id": 835,
    "url": "https://map.bemanicn.com/shop/835",
    "name": "星际锋暴（龙湖上城天街店）",
    "province": "四川省",
    "location": "成都市金牛区",
    "address": "一环路北二段与人民北路交汇处龙湖上城天街5楼"
  },
  "628": {
    "id": 628,
    "url": "https://map.bemanicn.com/shop/628",
    "name": "嗨森汇乐园成都金牛凯德店",
    "province": "四川省",
    "location": "成都市金牛区",
    "address": "交大路183号凯德广场(金牛店)一期四楼嗨森汇乐园"
  },
  "403": {
    "id": 403,
    "url": "https://map.bemanicn.com/shop/403",
    "name": "大玩家（金牛万达店）",
    "province": "四川省",
    "location": "成都市金牛区",
    "address": "一环路北三段1号万达广场(金牛店)2F层"
  },
  "884": {
    "id": 884,
    "url": "https://map.bemanicn.com/shop/884",
    "name": "第一回合(成都银泰城店)",
    "province": "四川省",
    "location": "成都市武侯区",
    "address": "益州大道1999号银泰城B1层(永辉超市出口处)"
  },
  "401": {
    "id": 401,
    "url": "https://map.bemanicn.com/shop/401",
    "name": "汤姆熊（凯德天府店）",
    "province": "四川省",
    "location": "成都市武侯区",
    "address": "天仁路388号凯德天府L4层"
  },
  "495": {
    "id": 495,
    "url": "https://map.bemanicn.com/shop/495",
    "name": "星际传奇（成都悠方店）",
    "province": "四川省",
    "location": "成都市武侯区",
    "address": "交子大道300号悠方购物中心3层353号"
  },
  "1000": {
    "id": 1000,
    "url": "https://map.bemanicn.com/shop/1000",
    "name": "星际传奇(成都龙泉驿世茂店)",
    "province": "四川省",
    "location": "成都市龙泉驿区",
    "address": "金枫路833号世茂广场4F"
  },
  "888": {
    "id": 888,
    "url": "https://map.bemanicn.com/shop/888",
    "name": "大玩家(青白江万达店)",
    "province": "四川省",
    "location": "成都市青白江区",
    "address": "政府南路8号"
  },
  "837": {
    "id": 837,
    "url": "https://map.bemanicn.com/shop/837",
    "name": "星际传奇（新都七一广场店）",
    "province": "四川省",
    "location": "成都市新都区",
    "address": "金光路2号七一国际广场3楼3010"
  },
  "266": {
    "id": 266,
    "url": "https://map.bemanicn.com/shop/266",
    "name": "汤姆熊（成都合生汇店）",
    "province": "四川省",
    "location": "成都市温江区",
    "address": "光华大道三段1588号合生汇4层L403、404、405"
  },
  "672": {
    "id": 672,
    "url": "https://map.bemanicn.com/shop/672",
    "name": "酷漫地带(成都郫都店)",
    "province": "四川省",
    "location": "成都市郫都区",
    "address": "双铁路69号润扬双铁广场石犀里B1层"
  },
  "984": {
    "id": 984,
    "url": "https://map.bemanicn.com/shop/984",
    "name": "大玩家（成都金堂万达店）",
    "province": "四川省",
    "location": "成都市金堂县",
    "address": "金堂万达广场"
  },
  "591": {
    "id": 591,
    "url": "https://map.bemanicn.com/shop/591",
    "name": "环游嘉年华成都都江堰店",
    "province": "四川省",
    "location": "成都市都江堰市",
    "address": "至臻路1号融创文旅城融创茂3楼环游嘉年华"
  },
  "748": {
    "id": 748,
    "url": "https://map.bemanicn.com/shop/748",
    "name": "娱乐至上(都江堰)",
    "province": "四川省",
    "location": "成都市都江堰市",
    "address": "大融城4楼(观景路一段与都江堰大道二段交叉路口往东南约50米)"
  },
  "798": {
    "id": 798,
    "url": "https://map.bemanicn.com/shop/798",
    "name": "酷漫地带（华商爱琴海）",
    "province": "四川省",
    "location": "自贡市自流井区",
    "address": "华商北路155号华商国际城二期"
  },
  "985": {
    "id": 985,
    "url": "https://map.bemanicn.com/shop/985",
    "name": "金阳光动漫城",
    "province": "四川省",
    "location": "德阳市旌阳区",
    "address": "长江西路二段1号德阳洋洋百货五楼金阳光动漫城"
  },
  "986": {
    "id": 986,
    "url": "https://map.bemanicn.com/shop/986",
    "name": "百汇游乐园",
    "province": "四川省",
    "location": "德阳市旌阳区",
    "address": "下南街167号"
  },
  "981": {
    "id": 981,
    "url": "https://map.bemanicn.com/shop/981",
    "name": "汤姆熊（广汉百伦店）",
    "province": "四川省",
    "location": "德阳市广汉市",
    "address": "西湖路东段157号(老百货大楼4楼)"
  },
  "504": {
    "id": 504,
    "url": "https://map.bemanicn.com/shop/504",
    "name": "大玩家(绵阳)",
    "province": "四川省",
    "location": "绵阳市涪城区",
    "address": "花园路9号"
  },
  "845": {
    "id": 845,
    "url": "https://map.bemanicn.com/shop/845",
    "name": "大玩家（四川内江东兴区万达）",
    "province": "四川省",
    "location": "内江市东兴区",
    "address": "汉安大道西段988号"
  },
  "406": {
    "id": 406,
    "url": "https://map.bemanicn.com/shop/406",
    "name": "大玩家（乐山店）",
    "province": "四川省",
    "location": "乐山市市中区",
    "address": "乐青路662号乐山万达广场3F层"
  },
  "894": {
    "id": 894,
    "url": "https://map.bemanicn.com/shop/894",
    "name": "西部城市英雄",
    "province": "四川省",
    "location": "南充市顺庆区",
    "address": "江东中路三段2号保利购物中心3F层3015,3016铺"
  },
  "408": {
    "id": 408,
    "url": "https://map.bemanicn.com/shop/408",
    "name": "波卡猫",
    "province": "四川省",
    "location": "南充市顺庆区",
    "address": "文化路1号五星花园雅邦百货二楼"
  },
  "409": {
    "id": 409,
    "url": "https://map.bemanicn.com/shop/409",
    "name": "星际传奇（南充）",
    "province": "四川省",
    "location": "南充市高坪区",
    "address": "江东大道中路6段309号王府井国际广场4楼"
  },
  "765": {
    "id": 765,
    "url": "https://map.bemanicn.com/shop/765",
    "name": "波卡猫欢乐城",
    "province": "四川省",
    "location": "南充市南部县",
    "address": "桂博大道2号"
  },
  "553": {
    "id": 553,
    "url": "https://map.bemanicn.com/shop/553",
    "name": "童年搭档家庭游乐中心（邻水店）",
    "province": "四川省",
    "location": "广安市邻水县",
    "address": "万兴大道与民兴巷交叉口东北50米宏帆广场宁洋百货一楼童年搭档"
  },
  "1056": {
    "id": 1056,
    "url": "https://map.bemanicn.com/shop/1056",
    "name": "酷啦啦电玩厅",
    "province": "四川省",
    "location": "巴中市巴州区",
    "address": "巴州大道499号容邦国际"
  },
  "298": {
    "id": 298,
    "url": "https://map.bemanicn.com/shop/298",
    "name": "风云再起贵阳大十字店",
    "province": "贵州省",
    "location": "贵阳市南明区",
    "address": "中山东路与中山西路交叉口东南100米"
  },
  "252": {
    "id": 252,
    "url": "https://map.bemanicn.com/shop/252",
    "name": "贵阳OYUDO御游堂",
    "province": "贵州省",
    "location": "贵阳市云岩区",
    "address": "北京路225号银海元隆广场B区11栋1单元2804"
  },
  "253": {
    "id": 253,
    "url": "https://map.bemanicn.com/shop/253",
    "name": "欢乐工坊电玩城",
    "province": "贵州省",
    "location": "贵阳市花溪区",
    "address": "阳光社区服务中心清溪路111号万宜广场负一楼"
  },
  "734": {
    "id": 734,
    "url": "https://map.bemanicn.com/shop/734",
    "name": "梦时代电玩城(玖福城店)",
    "province": "贵州省",
    "location": "贵阳市观山湖区",
    "address": "观山西路和碧海南路交汇处3楼"
  },
  "897": {
    "id": 897,
    "url": "https://map.bemanicn.com/shop/897",
    "name": "Sowhat搜哇特（曼哈顿广场）",
    "province": "贵州省",
    "location": "遵义市汇川区",
    "address": "珠海路195号"
  },
  "918": {
    "id": 918,
    "url": "https://map.bemanicn.com/shop/918",
    "name": "奇幻王国家庭游乐中心",
    "province": "贵州省",
    "location": "遵义市正安县",
    "address": "尹珍南路正安县凤仪镇中心小学东南190米"
  },
  "892": {
    "id": 892,
    "url": "https://map.bemanicn.com/shop/892",
    "name": "梦时代电玩城（国贸店）",
    "province": "贵州省",
    "location": "遵义市仁怀市",
    "address": "国酒南路385号附近"
  },
  "896": {
    "id": 896,
    "url": "https://map.bemanicn.com/shop/896",
    "name": "Sowhat搜哇特（方圆荟店）",
    "province": "贵州省",
    "location": "遵义市仁怀市",
    "address": "市府路与208省道交叉口西50米"
  },
  "534": {
    "id": 534,
    "url": "https://map.bemanicn.com/shop/534",
    "name": "奇奇动漫",
    "province": "贵州省",
    "location": "铜仁市碧江区",
    "address": "民主路步行街与环北路交叉口南50米"
  },
  "506": {
    "id": 506,
    "url": "https://map.bemanicn.com/shop/506",
    "name": "星联盟",
    "province": "贵州省",
    "location": "黔西南布依族苗族自治州兴义市",
    "address": "桔山办汇金中心负一楼"
  },
  "259": {
    "id": 259,
    "url": "https://map.bemanicn.com/shop/259",
    "name": "风云再起（昆明）",
    "province": "云南省",
    "location": "昆明市五华区",
    "address": "威远街168号金鹰购物广场B座F7层"
  },
  "254": {
    "id": 254,
    "url": "https://map.bemanicn.com/shop/254",
    "name": "欢乐故事（昆明）",
    "province": "云南省",
    "location": "昆明市五华区",
    "address": "人民中路17号新西南广场B区负一楼"
  },
  "458": {
    "id": 458,
    "url": "https://map.bemanicn.com/shop/458",
    "name": "大玩家（昆明盘龙区）",
    "province": "云南省",
    "location": "昆明市盘龙区",
    "address": "白云路168号"
  },
  "257": {
    "id": 257,
    "url": "https://map.bemanicn.com/shop/257",
    "name": "天空之城（南亚 NEW购物中心店）",
    "province": "云南省",
    "location": "昆明市西山区",
    "address": "福海南亚风情第壹城NEWMALLB1层 星巴克正对面 （曾经的南亚金鹰）"
  },
  "258": {
    "id": 258,
    "url": "https://map.bemanicn.com/shop/258",
    "name": "大玩家（昆明）",
    "province": "云南省",
    "location": "昆明市西山区",
    "address": "前兴路688号万达广场2F层"
  },
  "856": {
    "id": 856,
    "url": "https://map.bemanicn.com/shop/856",
    "name": "克罗米星VR电玩1903店",
    "province": "云南省",
    "location": "昆明市西山区",
    "address": "海宏路公园1903商业广场负1层（BF）"
  },
  "261": {
    "id": 261,
    "url": "https://map.bemanicn.com/shop/261",
    "name": "爱玩嘉年华（普洱）",
    "province": "云南省",
    "location": "普洱市思茅区",
    "address": "鱼水路创基尚城3楼东北侧"
  },
  "714": {
    "id": 714,
    "url": "https://map.bemanicn.com/shop/714",
    "name": "欢乐时光超乐场",
    "province": "云南省",
    "location": "普洱市思茅区",
    "address": "鱼水路创基尚城3楼西南侧"
  },
  "416": {
    "id": 416,
    "url": "https://map.bemanicn.com/shop/416",
    "name": "怪兽走开电玩城",
    "province": "云南省",
    "location": "大理白族自治州大理市",
    "address": "泰业国际广场"
  },
  "711": {
    "id": 711,
    "url": "https://map.bemanicn.com/shop/711",
    "name": "疯狂动物城儿童乐园",
    "province": "云南省",
    "location": "大理白族自治州大理市",
    "address": "泰安路93号泰业国际广场3楼"
  },
  "817": {
    "id": 817,
    "url": "https://map.bemanicn.com/shop/817",
    "name": "大玩家西安民乐园万达店",
    "province": "陕西省",
    "location": "西安市新城区",
    "address": "解放路111号万达广场4层"
  },
  "728": {
    "id": 728,
    "url": "https://map.bemanicn.com/shop/728",
    "name": "闪电部落",
    "province": "陕西省",
    "location": "西安市新城区",
    "address": "长乐西路166号益田假日世界购物中心三楼"
  },
  "488": {
    "id": 488,
    "url": "https://map.bemanicn.com/shop/488",
    "name": "悦翔游艺",
    "province": "陕西省",
    "location": "西安市新城区",
    "address": "长缨西路1号胡家庙十字路口华东万和城4楼"
  },
  "265": {
    "id": 265,
    "url": "https://map.bemanicn.com/shop/265",
    "name": "汤姆熊欢乐世界西安骡马市店",
    "province": "陕西省",
    "location": "西安市碑林区",
    "address": "东大街骡马市1号民生百货骡马市市兴正元广场D座1楼"
  },
  "209": {
    "id": 209,
    "url": "https://map.bemanicn.com/shop/209",
    "name": "哆啦星球大话南门店",
    "province": "陕西省",
    "location": "西安市碑林区",
    "address": "长安路南稍门什字东北角向南80米(长安路东侧)"
  },
  "210": {
    "id": 210,
    "url": "https://map.bemanicn.com/shop/210",
    "name": "stay for you漫玩吧",
    "province": "陕西省",
    "location": "西安市碑林区",
    "address": "东大街罗马市民生百货B1层520C区"
  },
  "207": {
    "id": 207,
    "url": "https://map.bemanicn.com/shop/207",
    "name": "哆啦乐图（钟楼）",
    "province": "陕西省",
    "location": "西安市莲湖区",
    "address": "东大街开元商城东侧停车场入口对面一层"
  },
  "211": {
    "id": 211,
    "url": "https://map.bemanicn.com/shop/211",
    "name": "乐而金游艺广场",
    "province": "陕西省",
    "location": "西安市莲湖区",
    "address": "劳动南路118号西市城 B1层西侧"
  },
  "866": {
    "id": 866,
    "url": "https://map.bemanicn.com/shop/866",
    "name": "爱玩嘉年华（西安）",
    "province": "陕西省",
    "location": "西安市灞桥区",
    "address": "沁水路龙湖西安香醍天街四层"
  },
  "804": {
    "id": 804,
    "url": "https://map.bemanicn.com/shop/804",
    "name": "大玩家西安大明宫万达店",
    "province": "陕西省",
    "location": "西安市未央区",
    "address": "凤城一路369号大明宫万达广场二楼"
  },
  "716": {
    "id": 716,
    "url": "https://map.bemanicn.com/shop/716",
    "name": "酷顽码头动漫娱乐城",
    "province": "陕西省",
    "location": "西安市未央区",
    "address": "未央路136-1号艾斯广场一楼扶梯右侧"
  },
  "208": {
    "id": 208,
    "url": "https://map.bemanicn.com/shop/208",
    "name": "哆啦星球小寨店",
    "province": "陕西省",
    "location": "西安市雁塔区",
    "address": "长安中路215号金莎国际隔壁(西旅国际1楼)"
  },
  "618": {
    "id": 618,
    "url": "https://map.bemanicn.com/shop/618",
    "name": "风云再起（咸阳正兴广场店）",
    "province": "陕西省",
    "location": "咸阳市秦都区",
    "address": "电影院十字人民中路11号"
  },
  "372": {
    "id": 372,
    "url": "https://map.bemanicn.com/shop/372",
    "name": "未来世界梦想王国",
    "province": "陕西省",
    "location": "延安市宝塔区",
    "address": "子长路与瑞金街交叉口"
  },
  "664": {
    "id": 664,
    "url": "https://map.bemanicn.com/shop/664",
    "name": "大玩家（商洛万达广场）",
    "province": "陕西省",
    "location": "商洛市商州区",
    "address": "商洛万达广场"
  },
  "520": {
    "id": 520,
    "url": "https://map.bemanicn.com/shop/520",
    "name": "奥德乐家庭游乐中心",
    "province": "甘肃省",
    "location": "兰州市城关区",
    "address": "北环东路888号杉杉奥特莱斯306奥德乐家庭游乐中心"
  },
  "213": {
    "id": 213,
    "url": "https://map.bemanicn.com/shop/213",
    "name": "Play1家庭娱乐中心（万达广场兰州城关店）",
    "province": "甘肃省",
    "location": "兰州市城关区",
    "address": "天水北路68号万达广场2楼"
  },
  "710": {
    "id": 710,
    "url": "https://map.bemanicn.com/shop/710",
    "name": "极客森超乐场（西宁吾悦广场店）",
    "province": "青海省",
    "location": "西宁市城东区",
    "address": "八一路68-22吾悦广场412号铺极客森超乐场"
  },
  "212": {
    "id": 212,
    "url": "https://map.bemanicn.com/shop/212",
    "name": "风云再起（西宁）",
    "province": "青海省",
    "location": "西宁市城西区",
    "address": "西关大街42-52号西宁国芳百货2楼"
  },
  "937": {
    "id": 937,
    "url": "https://map.bemanicn.com/shop/937",
    "name": "西夏万达大玩家（银川）",
    "province": "宁夏回族自治区",
    "location": "银川市西夏区",
    "address": "金波北街75号西夏万达广场二楼"
  },
  "771": {
    "id": 771,
    "url": "https://map.bemanicn.com/shop/771",
    "name": "大阅超乐场",
    "province": "宁夏回族自治区",
    "location": "银川市金凤区",
    "address": "正源北街277号(阅海万家C区斜对面)"
  },
  "542": {
    "id": 542,
    "url": "https://map.bemanicn.com/shop/542",
    "name": "威龙酷玩嘉年华",
    "province": "宁夏回族自治区",
    "location": "银川市金凤区",
    "address": "尹家渠北街悦海新天地3F 华联影城楼下"
  },
  "435": {
    "id": 435,
    "url": "https://map.bemanicn.com/shop/435",
    "name": "金凤万达大玩家（银川）",
    "province": "宁夏回族自治区",
    "location": "银川市金凤区",
    "address": "正源北街22号万达广场二楼"
  },
  "735": {
    "id": 735,
    "url": "https://map.bemanicn.com/shop/735",
    "name": "环游嘉年华超乐场(德港万达店)",
    "province": "新疆维吾尔自治区",
    "location": "乌鲁木齐市乌鲁木齐经济技术开发区",
    "address": "中亚南路198号德港万达6楼环游嘉年华超乐场"
  },
  "893": {
    "id": 893,
    "url": "https://map.bemanicn.com/shop/893",
    "name": "103电影公园",
    "province": "新疆维吾尔自治区",
    "location": "巴音郭楞蒙古自治州库尔勒市",
    "address": "石化大道102号9号仓生活广场3楼"
  },
  "905": {
    "id": 905,
    "url": "https://map.bemanicn.com/shop/905",
    "name": "环游嘉年华阿克苏天百",
    "province": "新疆维吾尔自治区",
    "location": "阿克苏地区阿克苏市",
    "address": "塔中路2号"
  },
  "860": {
    "id": 860,
    "url": "https://map.bemanicn.com/shop/860",
    "name": "湯姆熊歡樂世界 台北金萬年店",
    "province": "台湾省",
    "location": "台北市市辖区",
    "address": "台北市萬華區西寧南路70號5樓"
  },
  "861": {
    "id": 861,
    "url": "https://map.bemanicn.com/shop/861",
    "name": "湯姆熊歡樂世界 台北明耀店",
    "province": "台湾省",
    "location": "台北市市辖区",
    "address": "台北市大安區忠孝東路四段200號11F"
  },
  "863": {
    "id": 863,
    "url": "https://map.bemanicn.com/shop/863",
    "name": "力堡 站前店",
    "province": "台湾省",
    "location": "台北市市辖区",
    "address": "台北市中正區忠孝西路一段50-1號(站前地下街15-6號)"
  },
  "656": {
    "id": 656,
    "url": "https://map.bemanicn.com/shop/656",
    "name": "哈啦星球 西門店",
    "province": "台湾省",
    "location": "台北市市辖区",
    "address": "萬華區中華路一段114巷11號2樓"
  },
  "221": {
    "id": 221,
    "url": "https://map.bemanicn.com/shop/221",
    "name": "遊戲玩家 HYPER GAMER（武昌誠品）",
    "province": "台湾省",
    "location": "台北市市辖区",
    "address": "武昌街二段77號B1"
  },
  "249": {
    "id": 249,
    "url": "https://map.bemanicn.com/shop/249",
    "name": "X50 Music Game Station",
    "province": "台湾省",
    "location": "台北市市辖区",
    "address": "萬華區武昌街二段134號"
  },
  "862": {
    "id": 862,
    "url": "https://map.bemanicn.com/shop/862",
    "name": "湯姆熊歡樂世界 土城日月光店",
    "province": "台湾省",
    "location": "新北市市辖区",
    "address": "新北市土城區學府路二段210號地下一樓"
  },
  "898": {
    "id": 898,
    "url": "https://map.bemanicn.com/shop/898",
    "name": "哈啦星球 板橋南雅店",
    "province": "台湾省",
    "location": "新北市市辖区",
    "address": "新北市板橋南雅東街31之5號1樓"
  },
  "655": {
    "id": 655,
    "url": "https://map.bemanicn.com/shop/655",
    "name": "湯姆熊歡樂世界 板橋麗寶店",
    "province": "台湾省",
    "location": "新北市市辖区",
    "address": "板橋區縣民大道二段3號5樓"
  },
  "723": {
    "id": 723,
    "url": "https://map.bemanicn.com/shop/723",
    "name": "湯姆熊歡樂世界 樹林秀泰店",
    "province": "台湾省",
    "location": "新北市市辖区",
    "address": "新北市樹林區保安里4鄰樹新路40-6號3樓"
  },
  "250": {
    "id": 250,
    "url": "https://map.bemanicn.com/shop/250",
    "name": "极限游戏道馆（天台广场）",
    "province": "台湾省",
    "location": "新北市市辖区",
    "address": "新北市三重区重新路二段78号1楼"
  },
  "251": {
    "id": 251,
    "url": "https://map.bemanicn.com/shop/251",
    "name": "無限遊戲中心(前超天才遊樂園)",
    "province": "台湾省",
    "location": "新北市市辖区",
    "address": "新北市板橋區中山路一段50巷22號1F"
  },
  "753": {
    "id": 753,
    "url": "https://map.bemanicn.com/shop/753",
    "name": "新都市育樂廣場",
    "province": "台湾省",
    "location": "桃园市市辖区",
    "address": "桃園市中壢區中央西路一段120號11樓"
  },
  "754": {
    "id": 754,
    "url": "https://map.bemanicn.com/shop/754",
    "name": "米可熊娛樂城",
    "province": "台湾省",
    "location": "桃园市市辖区",
    "address": "桃園市中壢區興建街8號"
  },
  "792": {
    "id": 792,
    "url": "https://map.bemanicn.com/shop/792",
    "name": "湯姆熊歡樂世界 台中中友店",
    "province": "台湾省",
    "location": "台中市市辖区",
    "address": "台中市北區三民路三段161號B棟"
  },
  "793": {
    "id": 793,
    "url": "https://map.bemanicn.com/shop/793",
    "name": "湯姆熊歡樂世界 台中親親店",
    "province": "台湾省",
    "location": "台中市市辖区",
    "address": "台中市北區北屯路14號B1"
  },
  "794": {
    "id": 794,
    "url": "https://map.bemanicn.com/shop/794",
    "name": "娃娃帝國倫敦館",
    "province": "台湾省",
    "location": "台中市市辖区",
    "address": "台中市西屯區福星路461巷18號"
  },
  "248": {
    "id": 248,
    "url": "https://map.bemanicn.com/shop/248",
    "name": "創聲Chon Shing",
    "province": "香港特别行政区",
    "location": "香港岛中西区",
    "address": "租庇利街1-4號喜訊塔樓地庫"
  },
  "689": {
    "id": 689,
    "url": "https://map.bemanicn.com/shop/689",
    "name": "西灣河遊戲機中心",
    "province": "香港特别行政区",
    "location": "香港岛东区",
    "address": "西灣河筲箕灣道57-87號太安樓地下, Sai Wan Ho"
  },
  "230": {
    "id": 230,
    "url": "https://map.bemanicn.com/shop/230",
    "name": "電子廣場Electronic Square",
    "province": "香港特别行政区",
    "location": "九龙半岛深水埗区",
    "address": "福華街130號地下及閣樓"
  },
  "237": {
    "id": 237,
    "url": "https://map.bemanicn.com/shop/237",
    "name": "龍威娛樂遊戲機中心",
    "province": "香港特别行政区",
    "location": "九龙半岛深水埗区",
    "address": "元州街290-296號西岸國際大廈地庫"
  },
  "244": {
    "id": 244,
    "url": "https://map.bemanicn.com/shop/244",
    "name": "奇趣天地Sky Fantasia",
    "province": "香港特别行政区",
    "location": "九龙半岛深水埗区",
    "address": "長沙灣欽州街西九龍中心9樓901-903號鋪"
  },
  "220": {
    "id": 220,
    "url": "https://map.bemanicn.com/shop/220",
    "name": "海龍遊戲廣場",
    "province": "香港特别行政区",
    "location": "九龙半岛黄大仙区",
    "address": "龙翔道110号豪苑商場地下3號"
  },
  "229": {
    "id": 229,
    "url": "https://map.bemanicn.com/shop/229",
    "name": "荷里活遊戲城Game Zone",
    "province": "香港特别行政区",
    "location": "九龙半岛黄大仙区",
    "address": "龍蟠街3號荷裡活商場3樓383A號鋪"
  },
  "217": {
    "id": 217,
    "url": "https://map.bemanicn.com/shop/217",
    "name": "GameZone",
    "province": "香港特别行政区",
    "location": "九龙半岛油尖旺区",
    "address": "旺角彌敦道688號地底鋪全層"
  },
  "218": {
    "id": 218,
    "url": "https://map.bemanicn.com/shop/218",
    "name": "SmartGame",
    "province": "香港特别行政区",
    "location": "九龙半岛油尖旺区",
    "address": "旺角豉油街60號新寶戲院旁二樓"
  },
  "219": {
    "id": 219,
    "url": "https://map.bemanicn.com/shop/219",
    "name": "金星遊戲機中心",
    "province": "香港特别行政区",
    "location": "九龙半岛油尖旺区",
    "address": "香港旺角弥敦道557-559号永旺行地下及地庫A舖"
  },
  "232": {
    "id": 232,
    "url": "https://map.bemanicn.com/shop/232",
    "name": "旺角金雞SmartGame",
    "province": "香港特别行政区",
    "location": "九龙半岛油尖旺区",
    "address": "旺角洗衣街39-55號金雞廣場二樓"
  },
  "245": {
    "id": 245,
    "url": "https://map.bemanicn.com/shop/245",
    "name": "娃娃星球銅鑼灣旗艦店",
    "province": "香港特别行政区",
    "location": "九龙半岛油尖旺区",
    "address": "銅鑼灣駱克道波斯富街21-27號本德大廈地下丶一樓及二樓（C出口轉左30秒）"
  },
  "774": {
    "id": 774,
    "url": "https://map.bemanicn.com/shop/774",
    "name": "沙龍游戲機中心 Salem Game Centre",
    "province": "香港特别行政区",
    "location": "新界沙田区",
    "address": "沥源街7号"
  },
  "215": {
    "id": 215,
    "url": "https://map.bemanicn.com/shop/215",
    "name": "荃湾金禾(X-Land)",
    "province": "香港特别行政区",
    "location": "新界荃湾区",
    "address": "众安街68号千色汇1期4楼B铺（稻香旁）"
  },
  "216": {
    "id": 216,
    "url": "https://map.bemanicn.com/shop/216",
    "name": "荃灣金星",
    "province": "香港特别行政区",
    "location": "新界荃湾区",
    "address": "荃灣青山公路荃灣段264號荃灣新之城廣場3樓"
  },
  "224": {
    "id": 224,
    "url": "https://map.bemanicn.com/shop/224",
    "name": "新遊戲",
    "province": "澳门特别行政区",
    "location": "澳门市花地玛堂区",
    "address": "永華街57號僑光大廈地下H鋪"
  },
  "417": {
    "id": 417,
    "url": "https://map.bemanicn.com/shop/417",
    "name": "佳景樂園",
    "province": "澳门特别行政区",
    "location": "澳门市圣安多尼堂区",
    "address": "连胜街1A号白鴿巢麗豪花園地庫"
  },
  "222": {
    "id": 222,
    "url": "https://map.bemanicn.com/shop/222",
    "name": "亞洲遊戲機",
    "province": "澳门特别行政区",
    "location": "澳门市圣安多尼堂区",
    "address": "高士德大馬路88～93 號高士德商業中心一樓（紅街市大豐銀行對面）"
  },
  "223": {
    "id": 223,
    "url": "https://map.bemanicn.com/shop/223",
    "name": "哈比夢幻樂園",
    "province": "澳门特别行政区",
    "location": "澳门市圣安多尼堂区",
    "address": "高士德大马路91号高士德商业中心地庫"
  }
}